local,tipo,denominacion,coordenadas,latitud,longitud,elev,uom_elev,ref,distancia_ref,direccion_ref,condicion,control,region,uso,trafico,sna,concesionado,provincia
ACB,Aeródromo,CORONEL BOGADO/AGROSERVICIOS,"33°16'20""S  60°34'14""W",-60.57066,-33.27226,44.0,Metros,Coronel Bogado,6.0,NE,PRIVADO,NOCONTROL,RACE,AEROAPP,Nacional,NO,NO,SANTA FÉ
ACH,Aeródromo,GENERAL ACHA,"37°24' 6""S  64°36'49""W",-64.61351,-37.40164,277.0,Metros,General Acha,3.0,SO,PUBLICO,NOCONTROL,RACE,CIVIL,Nacional,NO,NO,LA PAMPA
ACM,Aeródromo,ARRECIFES/LA CURA MALAL,"34° 4'33""S  60° 8'30""W",-60.1417,-34.07574,37.0,Metros,Arrecifes,4.0,OSO,PRIVADO,NOCONTROL,RACE,CIVIL,Nacional,NO,NO,BUENOS AIRES
ADO,Aeródromo,PUERTO DESEADO,"47°44' 6""S  65°54'15""W",-65.9041,-47.73511,82.0,Metros,Puerto Deseado,2.0,N,PUBLICO,AERADIO,RASU,CIVIL,Nacional,NO,NO,SANTA CRUZ
ADT,Aeródromo,BANDERA/AGROSERVICIOS DOÑA TERESA,"28°51'19""S  62°15'53""W",-62.26462,-28.85541,75.0,Metros,Bandera,4.0,N,PRIVADO,NOCONTROL,RANO,AEROAPP,Nacional,NO,NO,SANTIAGO DEL ESTERO
ADU,Aeródromo,BANDERA/DUTTO,"28°52' 1""S  62°14'17""W",-62.23812,-28.86691,87.0,Metros,Bandera,3.0,NE,PRIVADO,NOCONTROL,RANO,AEROAPP,Nacional,NO,NO,SANTIAGO DEL ESTERO
AER,Aeródromo,BUENOS AIRES/AEROPARQUE J. NEWBERY,"34°33'32""S  58°24'59""W",-58.41638889,-34.55888889,5.6,Metros,Ciudad de Buenos Aires,2.0,NE,PUBLICO,CONTROL,RACE,JOINT,Internacional,SI,SI,CIUDAD AUTÓNOMA DE BUENOS AIRES
AGI,Aeródromo,PIEDRA DEL ÁGUILA,"40°11'32""S  70° 0'39""W",-70.01075,-40.19232,649.0,Metros,Piedra del Águila,17.0,SSE,PRIVADO,NOCONTROL,RACE,,Nacional,NO,NO,NEUQUÉN
AGR,Aeródromo,ALTA GRACIA,"31°39' 4""S  64°23'38""W",-64.39388889,-31.65111111,533.0,Metros,Alta Gracia,2.0,E,PUBLICO,NOCONTROL,RANO,CIVIL,Nacional,NO,NO,CÓRDOBA
AII,Aeródromo,CHACABUCO/LAS DOS A,"34°48'40""S  60°30'60""W",-60.51661,-34.81116,60.0,Metros,Chacabuco,20.0,SSO,PRIVADO,NOCONTROL,RACE,AEROAPP,Nacional,NO,NO,BUENOS AIRES
AJA,Aeródromo,LA LAJA,"31°21' 5""S  68°28'23""W",-68.47305556,-31.35138889,650.0,Metros,La Laja,1.0,SSE,PRIVADO,NOCONTROL,RANO,CIVIL,Nacional,NO,NO,SAN JUAN
ALC,Aeródromo,AMEGHINO/LA CHACRA,"34°48'34""S  62°31'23""W",-62.52293,-34.80942,109.0,Metros,Florentino Ameghino,7.0,NO,PRIVADO,NOCONTROL,RACE,CIVIL,Nacional,NO,NO,BUENOS AIRES
ALL,Aeródromo,ALLEN,"38°57'30""S  67°48'10""W",-67.80277778,-38.95833333,290.0,Metros,Allen,3.5,E,PRIVADO,NOCONTROL,RACE,CIVIL,Nacional,NO,NO,RÍO NEGRO
ALR,Aeródromo,ALEJANDRO ROCA,"33°20'55""S  63°43'48""W",-63.73,-33.34861111,210.0,Metros,Alejandro Roca,1.5,SO,PRIVADO,NOCONTROL,RANO,CIVIL,Nacional,NO,NO,CÓRDOBA
ALT,Aeródromo,CRUZ ALTA,"33° 0'28""S  61°50'13""W",-61.83694444,-33.00777778,97.0,Metros,Cruz Alta,2.0,O,PUBLICO,NOCONTROL,RACE,CIVIL,Nacional,NO,NO,CÓRDOBA
ALV,Aeródromo,ALVEAR/AGROALVEAR SRL,"33° 4' 7""S  60°40' 1""W",-60.66682,-33.06853,32.0,Metros,Alvear,4.5,O,PRIVADO,NOCONTROL,RACE,AEROAPP,Nacional,NO,NO,SANTA FÉ
AMA,Aeródromo,ROBERTS/LA AMALIA,"35° 6' 2""S  62° 0'60""W",-62.01657,-35.10043,100.0,Metros,Roberts,6.5,NO,PRIVADO,NOCONTROL,RACE,AEROAPP,Nacional,NO,NO,BUENOS AIRES
AME,Aeródromo,AMEGHINO/SIGFRIDO ROHR,"34°49'50""S  62°28' 4""W",-62.46787,-34.83057,110.0,Metros,Florentino Ameghino,2.0,N,PRIVADO,NOCONTROL,RACE,AEROAPP,Nacional,NO,NO,BUENOS AIRES
AMG,Aeródromo,AMEGHINO,"34°50'43""S  62°28'58""W",-62.48266,-34.84541,110.0,Metros,Florentino Ameghino,2.5,ONO,PRIVADO,NOCONTROL,RACE,CIVIL,Nacional,NO,NO,BUENOS AIRES
ANA,Aeródromo,PARANÁ/AEROCLUB,"31°45'28""S  60°22'26""W",-60.37388889,-31.75777778,60.0,Metros,La Picada,15.0,ESE,PUBLICO,NOCONTROL,RACE,,Nacional,NO,NO,ENTRE RÍOS
AND,Aeródromo,ANDALGALÁ,"27°37'41""S  66°20'34""W",-66.34277778,-27.62805556,900.0,Metros,Andalgalá,1.0,O,PRIVADO,NOCONTROL,RANO,CIVIL,Nacional,NO,NO,CATAMARCA
APO,Aeródromo,APÓSTOLES,"27°54'12""S  55°45'56""W",-55.76555556,-27.90333333,117.0,Metros,Apóstoles,1.6,NO,PRIVADO,NOCONTROL,RANE,CIVIL,Nacional,NO,NO,MISIONES
ARB,Aeródromo,ARRIBEÑOS,"34°13'19""S  61°23'12""W",-61.38666667,-34.22194444,82.0,Metros,Arribeños,3.3,SO,PUBLICO,NOCONTROL,RACE,CIVIL,Nacional,NO,NO,BUENOS AIRES
ARS,Aeródromo,ALTO RÍO SENGUERR/D. C. SZLAPELIS,"45° 0'48""S  70°48'46""W",-70.81282,-45.0132,697.0,Metros,Alto Río Senguerr,3.0,N,PUBLICO,AERADIO,RASU,CIVIL,Nacional,NO,NO,CHUBUT
ARY,Aeródromo,ARROYITO/ARCOR,"31°25'20""S  63° 0'18""W",-63.005,-31.42222222,148.0,Metros,Arroyito,4.0,E,PUBLICO,NOCONTROL,RANO,CIVIL,Nacional,NO,NO,CÓRDOBA
ATE,Aeródromo,ZÁRATE,"34° 7' 6""S  59° 4'58""W",-59.08266,-34.11829,26.0,Metros,Zárate,6.0,SO,PUBLICO,NOCONTROL,RACE,,Nacional,NO,NO,BUENOS AIRES
ATN,Aeródromo,TRENQUE LAUQUEN/LA ARGENTINA,"35°59'52""S  62°42'23""W",-62.70635,-35.99773,95.0,Metros,Trenque Lauquen,2.0,SE,PRIVADO,NOCONTROL,RACE,AEROAPP,Nacional,NO,NO,BUENOS AIRES
AUL,Aeródromo,AMEGHINO/AUGUSTO LEGUIZAMÓN,"34°49' 5""S  62°28'38""W",-62.47709,-34.81797,109.0,Metros,Florentino Ameghino,3.0,NNO,PRIVADO,NOCONTROL,RACE,AEROAPP,Nacional,NO,NO,BUENOS AIRES
AVA,Aeródromo,ALVEAR/AEROPARQUE ROSARIO,"33° 2'49""S  60°35'51""W",-60.59756,-33.04691,26.0,Metros,Alvear,2.5,ENE,PUBLICO,NOCONTROL,RACE,CIVIL,Nacional,NO,NO,SANTA FÉ
AVL,Aeródromo,AVELLANEDA/PRESIDENTE AVELLANEDA,"29° 6'22""S  59°39'27""W",-59.6575,-29.10611111,45.0,Metros,Avellaneda,1.0,N,PUBLICO,NOCONTROL,RANE,CIVIL,Nacional,NO,NO,SANTA FÉ
AYA,Aeródromo,AYACUCHO,"37° 9'45""S  58°28'23""W",-58.47305556,-37.1625,77.0,Metros,Ayacucho,0.9,SE,PUBLICO,NOCONTROL,RACE,CIVIL,Nacional,NO,NO,BUENOS AIRES
BAD,Aeródromo,BERÓN DE ASTRADA/DINALUCA S.A.,"27°22'58""S  57°38'39""W",-57.64416667,-27.38277778,67.0,Metros,Berón de Astrada,21.0,NNO,PRIVADO,NOCONTROL,RANE,CIVIL,Nacional,NO,NO,CORRIENTES
BAI,Aeródromo,LAGO BUENOS AIRES,"46°34'34""S  70°56'53""W",-70.94805556,-46.57611111,387.0,Metros,Perito Moreno,2.5,NNO,PRIVADO,NOCONTROL,RASU,CIVIL,Nacional,NO,NO,SANTA CRUZ
BAL,Aeródromo,BALCARCE,"37°54'55""S  58°20'37""W",-58.34361111,-37.91527778,120.0,Metros,Balcarce,12.0,S,PUBLICO,NOCONTROL,RACE,CIVIL,Nacional,NO,NO,BUENOS AIRES
BAR,Aeródromo,SAN CARLOS DE BARILOCHE,"41° 9' 4""S  71° 9'28""W",-71.15777778,-41.15111111,846.0,Metros,San Carlos de Bariloche,13.0,E,PUBLICO,CONTROL,RACE,,Internacional,SI,SI,RÍO NEGRO
BAS,Aeródromo,BASAVILBASO,"32°21'42""S  58°52'54""W",-58.8816,-32.3616,60.0,Metros,Basavilbaso,1.0,NO,PUBLICO,NOCONTROL,RACE,CIVIL,Nacional,NO,NO,ENTRE RÍOS
BCA,Aeródromo,BAHÍA BLANCA/COMANDANTE ESPORA,"38°43'39""S  62° 9'12""W",-62.15333333,-38.7275,75.0,Metros,Bahía Blanca,10.0,E,PUBLICO,CONTROL,RACE,JOINT,Nacional,SI,NO,BUENOS AIRES
BDO,Aeródromo,BARADERO,"33°49'16""S  59°29'34""W",-59.49279,-33.82122,29.0,Metros,Baradero,1.5,NO,PUBLICO,NOCONTROL,RACE,CIVIL,Nacional,NO,NO,BUENOS AIRES
BDR,Aeródromo,BAHÍA DORADA,"41°50'34""S  65° 4'56""W",-65.08222222,-41.84277778,36.0,Metros,Sierra Grande,35.0,SE,PRIVADO,NOCONTROL,RASU,CIVIL,Nacional,NO,NO,RÍO NEGRO
BEL,Aeródromo,BELL VILLE,"32°39'30""S  62°42' 7""W",-62.70194444,-32.65833333,131.0,Metros,Bell Ville,2.5,SSO,PUBLICO,NOCONTROL,RANO,CIVIL,Nacional,NO,NO,CÓRDOBA
BEX,Aeródromo,BARADERO,"33°51'31""S  59°28' 9""W",-59.46911,-33.85864,26.0,Metros,Pueblo Alsina,9.0,NO,PRIVADO,NOCONTROL,RACE,ULM,Nacional,NO,NO,BUENOS AIRES
BHB,Aeródromo,BAHÍA BLANCA/AEROCLUB,"38°40'19""S  62°21' 9""W",-62.3525,-38.67194444,15.0,Metros,Bahía Blanca,9.0,NO,PRIVADO,NOCONTROL,RACE,CIVIL,Nacional,NO,NO,BUENOS AIRES
BHT,Aeródromo,BRAGADO/HARAS TRELLIRIS,"35°19'53""S  60°34'44""W",-60.57884,-35.33147,60.0,Metros,Bragado,12.0,S,PRIVADO,NOCONTROL,RACE,CIVIL,Nacional,NO,NO,BUENOS AIRES
BIO,Aeródromo,EL TURBIO/28 DE NOVIEMBRE,"51°36'18""S  72°13'13""W",-72.22034,-51.60502,273.0,Metros,El Turbio,10.0,ONO,PUBLICO,AERADIO,RASU,CIVIL,Nacional,SI,NO,SANTA CRUZ
BLA,Aeródromo,BALCARCE/EA. LA ALBORADA,"37°27'46""S  58°11'18""W",-58.18833333,-37.46277778,64.0,Metros,Balcarce,43.0,NNE,PRIVADO,NOCONTROL,RACE,CIVIL,Nacional,NO,NO,BUENOS AIRES
BLC,Aeródromo,BALCARCE/EA. LOS CARDOS,"37°44' 7""S  58° 2'18""W",-58.03821,-37.73529,120.0,Metros,Balcarce,21.0,NE,PRIVADO,NOCONTROL,RACE,CIVIL,Nacional,NO,NO,BUENOS AIRES
BLE,Aeródromo,BALCARCE/EA. LA ESTRELLA,"37°33'34""S  58°39'58""W",-58.66611111,-37.55944444,139.0,Metros,Balcarce,53.0,N,PRIVADO,NOCONTROL,RACE,CIVIL,Nacional,NO,NO,BUENOS AIRES
BLL,Aeródromo,MIRAMAR/LAS CORTADERAS,"38°21'17""S  58° 6'31""W",-58.10861111,-38.35472222,16.0,Metros,Mechongue,25.0,SE,PRIVADO,NOCONTROL,RACE,,Nacional,NO,NO,BUENOS AIRES
BLN,Aeródromo,LONDRES/BELÉN,"27°42'29""S  67° 5'42""W",-67.095,-27.70805556,1200.0,Metros,Belén,2.0,NE,PRIVADO,NOCONTROL,RANO,,Nacional,NO,NO,CATAMARCA
BLR,Aeródromo,BOLIVAR,"36°11'12""S  61° 4'33""W",-61.07583333,-36.18666667,94.0,Metros,San Carlos de Bolivar,6.0,NNE,PUBLICO,NOCONTROL,RACE,CIVIL,Nacional,NO,NO,BUENOS AIRES
BMO,Aeródromo,BRAGADO/MALFATO,"35° 9' 6""S  60°30'20""W",-60.50555556,-35.15166667,57.0,Metros,Bragado,4.0,SO,PRIVADO,NOCONTROL,RACE,AEROAPP,Nacional,NO,NO,BUENOS AIRES
BOE,Aeródromo,MORTEROS/AEROBOERO,"30°43'51""S  62° 0'29""W",-62.00809,-30.73091,96.0,Metros,Morteros,1.0,S,PUBLICO,NOCONTROL,RANO,,Nacional,NO,NO,CÓRDOBA
BOG,Aeródromo,CORONEL BOGADO/FUMIGACIONES CAMPAGNUCCI,"33°19'27""S  60°39'58""W",-60.66617,-33.32404,48.0,Metros,Coronel Bogado,6.0,O,PRIVADO,NOCONTROL,RACE,AEROAPP,Nacional,NO,NO,SANTA FÉ
BOL,Aeródromo,EL BOLSÓN,"41°56'36""S  71°31'56""W",-71.53215,-41.94323,348.0,Metros,El Bolsón,0.0,Lindando,PUBLICO,AERADIO,RASU,CIVIL,Nacional,NO,NO,RÍO NEGRO
BOM,Aeródromo,BOMBAL/GRAN ANCONA,"33°26'19""S  61°18'12""W",-61.30323,-33.43852,97.0,Metros,Bombal,3.0,NE,PRIVADO,NOCONTROL,RACE,CIVIL,Nacional,NO,NO,SANTA FÉ
BOS,Aeródromo,LOBOS,"35°12'39""S  59° 8'12""W",-59.13666667,-35.21083333,29.0,Metros,Lobos,3.0,SO,PUBLICO,NOCONTROL,RACE,,Nacional,NO,NO,BUENOS AIRES
BPS,Aeródromo,BRINKMANN/PABLO SIERRA AEROAPLICACIONES,"30°55'46""S  62° 3' 2""W",-62.05055556,-30.92944444,100.0,Metros,Brinckmann,6.5,SSO,PRIVADO,NOCONTROL,RANO,AEROAPP,Nacional,NO,NO,CÓRDOBA
BRA,Aeródromo,BRAGADO,"35° 8'43""S  60°28'55""W",-60.48194444,-35.14527778,60.0,Metros,Bragado,2.0,SSE,PUBLICO,NOCONTROL,RACE,CIVIL,Nacional,NO,NO,BUENOS AIRES
BRF,Aeródromo,BAHÍA BLANCA/LA REFORMA,"38°43'50""S  63°17'14""W",-63.28722,-38.7305,67.0,Metros,Bahía Blanca,88.0,O,PRIVADO,NOCONTROL,RASU,CIVIL,Nacional,NO,NO,BUENOS AIRES
BRQ,Aeródromo,BUTA RANQUIL/EL PORTÓN,"37°11'42""S  69°36'35""W",-69.60972222,-37.195,870.0,Metros,Buta Ranquil,22.0,SE,PRIVADO,NOCONTROL,RACE,CIVIL,Nacional,NO,NO,NEUQUÉN
BTA,Aeródromo,BELLA VISTA,"28°31'34""S  59° 2'17""W",-59.03805556,-28.52611111,55.0,Metros,Bella Vista,0.0,Lindando,PUBLICO,NOCONTROL,RANE,CIVIL,Nacional,NO,NO,CORRIENTES
BTS,Aeródromo,CORRAL DE BUSTOS,"33°16'53""S  62° 9' 5""W",-62.15138889,-33.28138889,120.0,Metros,Corral de Bustos,2.0,O,PRIVADO,NOCONTROL,RACE,CIVIL,Nacional,NO,NO,CÓRDOBA
CAF,Aeródromo,CAFAYATE,"26° 3'51""S  65°55'50""W",-65.93055556,-26.06416667,1639.0,Metros,Cafayate,1.0,NO,PRIVADO,NOCONTROL,RANO,CIVIL,Nacional,NO,NO,SALTA
CAL,Aeródromo,CAMPO ARENAL,"27° 4'20""S  66°35'11""W",-66.58638889,-27.07222222,2324.0,Metros,Santa María,58.0,SO,PRIVADO,NOCONTROL,RANO,CIVIL,Nacional,NO,NO,CATAMARCA
CAM,Aeródromo,CORRALITO/ALFONSO MENGO,"32° 1'28""S  64°16'46""W",-64.27944444,-32.02444444,545.0,Metros,Corralito,7.0,O,PRIVADO,NOCONTROL,RANO,AEROAPP,Nacional,NO,NO,CÓRDOBA
CAT,Aeródromo,CATAMARCA,"28°35'35""S  65°45' 4""W",-65.75111111,-28.59305556,464.0,Metros,San Fernando del Valle de Catamarca,15.0,SSE,PUBLICO,CONTROL,RANO,CIVIL,Nacional,SI,SI,CATAMARCA
CAY,Aeródromo,SAN CAYETANO,"38°20' 2""S  59°37'49""W",-59.63027778,-38.33388889,100.0,Metros,San Cayetano,1.5,ONO,PRIVADO,NOCONTROL,RACE,,Nacional,NO,NO,BUENOS AIRES
CBA,Aeródromo,CÓRDOBA/ING. AER. A. L. V. TARAVELLA,"31°18'36""S  64°12'30""W",-64.20833333,-31.31,489.0,Metros,Córdoba,9.0,NNO,PUBLICO,CONTROL,RANO,CIVIL,Internacional,SI,SI,CÓRDOBA
CBB,Aeródromo,CAÑADA ROSQUIN/ByB SERVICIOS AGROPECUARIOS,"32° 6'42""S  61°37'55""W",-61.63196,-32.11159,73.0,Metros,Cañada Rosquín,7.0,SSO,PRIVADO,NOCONTROL,RACE,AEROAPP,Nacional,NO,NO,SANTA FÉ
CBD,Aeródromo,CABILDO,"38°29'55""S  61°53' 3""W",-61.88416667,-38.49861111,159.0,Metros,Cabildo,1.5,SE,PRIVADO,NOCONTROL,RACE,CIVIL,Nacional,NO,NO,BUENOS AIRES
CCA,Aeródromo,CURUZÚ CUATIÁ,"29°46'21""S  57°58'58""W",-57.98277778,-29.7725,70.0,Metros,Curuzú Cuatiá,4.0,ENE,PUBLICO,AERADIO,RANE,CIVIL,Nacional,NO,NO,CORRIENTES
CCH,Aeródromo,CARLOS CASARES/HAYDEE,"35°40'12""S  61°24'20""W",-61.405525,-35.6698945,82.0,Metros,Carlos Casares,6.0,SW,PRIVADO,NOCONTROL,RACE,CIVIL,Nacional,NO,NO,BUENOS AIRES
CCI,Aeródromo,CALCHAQUÍ,"29°51' 6""S  60°17'31""W",-60.29201667,-29.85157222,56.0,Metros,Calchaquí,4.0,N,PRIVADO,NOCONTROL,RANE,CIVIL,Nacional,NO,NO,SANTA FÉ
CCM,Aeródromo,CARLOS CASARES/MALATINI,"35°34' 9""S  61°22' 6""W",-61.36821,-35.56915,82.0,Metros,Carlos Casares,6.0,N,PRIVADO,NOCONTROL,RACE,AEROAPP,Nacional,NO,NO,BUENOS AIRES
CCO,Aeródromo,CARLOS CASARES/OTTAVIANI,"35°38'53""S  61°21' 1""W",-61.35038,-35.64817,82.0,Metros,Carlos Casares,2.0,SSE,PRIVADO,NOCONTROL,RACE,AEROAPP,Nacional,NO,NO,BUENOS AIRES
CCP,Aeródromo,CONCEPCIÓN,"27°20'41""S  65°37' 1""W",-65.61694444,-27.34472222,386.0,Metros,Concepción,2.4,O,PRIVADO,NOCONTROL,RANO,CIVIL,Nacional,NO,NO,TUCUMÁN
CCS,Aeródromo,CACHI,"25° 6'19""S  66° 9'26""W",-66.1572,-25.10518,2510.0,Metros,Cachi,2.0,NO,PRIVADO,NOCONTROL,RANO,CIVIL,Nacional,NO,NO,SALTA
CDA,Aeródromo,SARGENTO CABRAL/CONDOR DEL AIRE,"33°27'57""S  60°37'43""W",-60.62857,-33.46586,56.0,Metros,Sargento Cabral,4.0,S,PRIVADO,NOCONTROL,RACE,AEROAPP,Nacional,NO,NO,SANTA FÉ
CDI,Aeródromo,CARCARAÑÁ/DI GIUSEPPE,"32°53'28""S  61° 7'27""W",-61.12414,-32.89099,89.0,Metros,Carcarañá,5.0,SE,PRIVADO,NOCONTROL,RACE,CIVIL,Nacional,NO,NO,SANTA FÉ
CDL,Aeródromo,CAÑADA DE LUQUE/BIONDI,"30°45'28""S  63°44'53""W",-63.74818,-30.75769,249.0,Metros,Cañada de Luque,3.0,SW,PRIVADO,NOCONTROL,RANO,AEROAPP,Nacional,NO,NO,CÓRDOBA
CDS,Aeródromo,CAÑADÓN SECO,"46°32'17""S  67°33'35""W",-67.55972222,-46.53805556,90.0,Metros,Cañadón Seco,5.0,NE,PRIVADO,NOCONTROL,RASU,CIVIL,Nacional,NO,NO,SANTA CRUZ
CDU,Aeródromo,CONCEPCIÓN DEL URUGUAY,"32°27'18""S  58°18'24""W",-58.30666667,-32.455,34.0,Metros,Concepción del Uruguay,8.0,NO,PUBLICO,NOCONTROL,RACE,CIVIL,Nacional,NO,NO,ENTRE RÍOS
CED,Aeródromo,MERCEDES,"33°38'32""S  65°25'14""W",-65.42051,-33.6422,515.0,Metros,Villa Mercedes,3.0,NE,PUBLICO,NOCONTROL,RANO,,Nacional,NO,NO,SAN LUIS
CEJ,Aeródromo,LAS CEJAS/AGROALAS SRL,"26°52'11""S  64°44'45""W",-64.74583333,-26.86972222,346.0,Metros,Las Cejas,2.0,NNO,PRIVADO,NOCONTROL,RANO,CIVIL,Nacional,NO,NO,TUCUMÁN
CFU,Aeródromo,CARHUE/FUMAGRO,"37°12'53""S  62°46'50""W",-62.78055556,-37.21472222,111.0,Metros,Carhué,5.0,SO,PRIVADO,NOCONTROL,RACE,AEROAPP,Nacional,NO,NO,BUENOS AIRES
CHA,Aeródromo,CHARATA,"27°12'59""S  61°12'36""W",-61.21011,-27.21639,92.0,Metros,Charata,10.0,S,PUBLICO,NOCONTROL,RANE,CIVIL,Nacional,NO,NO,CHACO
CHC,Aeródromo,CHAJARI/EA. LA CHOZA,"30°32'20""S  58°17'34""W",-58.29287,-30.53899,72.0,Metros,Chajarí,39.0,NO,PRIVADO,NOCONTROL,RACE,CIVIL,Nacional,NO,NO,ENTRE RÍOS
CHJ,Aeródromo,CHAJARI,"30°45'14""S  58° 0' 0""W",-58.00002,-30.7539,53.0,Metros,Chajarí,1.5,O,PUBLICO,NOCONTROL,RACE,CIVIL,Nacional,NO,NO,ENTRE RÍOS
CHM,Aeródromo,CHOS MALAL,"37°26'39""S  70°13'23""W",-70.22305556,-37.44416667,850.0,Metros,Chos Malal,10.0,S,PUBLICO,NOCONTROL,RACE,CIVIL,Nacional,NO,NO,NEUQUÉN
CHO,Aeródromo,CHOLILA,"42°28'50""S  71°27'25""W",-71.45682,-42.4806,574.0,Metros,Cholila,4.0,NO,PRIVADO,NOCONTROL,RASU,CIVIL,Nacional,NO,NO,CHUBUT
CHP,Aeródromo,SAN MARTÍN DE LOS ANDES/AVIADOR C. CAMPOS,"40° 4'31""S  71° 8'14""W",-71.13722222,-40.07527778,783.0,Metros,San Martín de los Andes,20.0,ENE,PUBLICO,CONTROL,RACE,CIVIL,Nacional,SI,SI,NEUQUÉN
CHR,Aeródromo,CHACHARRAMENDI,"37°20'24""S  65°38'49""W",-65.64701,-37.34005,290.0,Metros,Chacharramendi,0.5,SE,PUBLICO,NOCONTROL,RACE,CIVIL,Nacional,NO,NO,LA PAMPA
CHT,Aeródromo,CHARATA/EL GRINGO,"27°18'23""S  61°12'37""W",-61.21041,-27.30629,92.0,Metros,Charata,10.0,S,PRIVADO,NOCONTROL,RANE,CIVIL,Nacional,NO,NO,CHACO
CHY,Aeródromo,CHIVILCOY,"34°57'45""S  60° 1'56""W",-60.03222222,-34.9625,53.0,Metros,Chivilcoy,7.0,S,PUBLICO,NOCONTROL,RACE,CIVIL,Nacional,NO,NO,BUENOS AIRES
CIF,Aeródromo,ARRECIFES/AEROCLUB,"34° 4'43""S  60° 2'46""W",-60.04602,-34.07849,43.0,Metros,Arrecifes,4.5,ESE,PRIVADO,NOCONTROL,RACE,CIVIL,Nacional,NO,NO,BUENOS AIRES
CII,Aeródromo,CORRIENTES/ITA IBATE,"27°26'54""S  57°25'20""W",-57.42222222,-27.44833333,68.0,Metros,Ita Ibate,8.0,OSO,PRIVADO,NOCONTROL,RANE,CIVIL,Nacional,NO,NO,CORRIENTES
CIP,Aeródromo,CIPOLLETTI/AEROCLUB,"38°53'34""S  67°59'20""W",-67.98888889,-38.89277778,270.0,Metros,Cipolletti,5.5,N,PUBLICO,NOCONTROL,RACE,CIVIL,Nacional,NO,NO,RÍO NEGRO
CIT,Aeródromo,CORRIENTES/ITATI,"27°18'12""S  58°18'55""W",-58.31527778,-27.30333333,60.0,Metros,Itatí,8.0,OSO,PRIVADO,NOCONTROL,RANE,AEROAPP,Nacional,NO,NO,CORRIENTES
CLD,Aeródromo,CHAÑAR LADEADO,"33°20'21""S  62° 2'13""W",-62.03693,-33.3391,112.0,Metros,Chañar Ladeado,0.0,Lindando,PUBLICO,NOCONTROL,RACE,CIVIL,Nacional,NO,NO,SANTA FÉ
CLE,Aeródromo,CORRALITO/LOMAS DEL ESPINILLO,"32° 5'17""S  64°10'11""W",-64.16972222,-32.08805556,439.5,Metros,Río Tercero,9.0,NNO,PRIVADO,NOCONTROL,RANO,AEROAPP,Nacional,NO,NO,CÓRDOBA
CLH,Aeródromo,LAS HERAS,"46°32'19""S  68°57'57""W",-68.96583,-46.53848,330.0,Metros,Las Heras,2.0,O,PUBLICO,NOCONTROL,RASU,CIVIL,Nacional,NO,NO,SANTA CRUZ
CLI,Aeródromo,CALILEGUA,"23°46'54""S  64°44'59""W",-64.74972222,-23.78166667,442.0,Metros,Calilegua,1.7,E,PRIVADO,NOCONTROL,RANO,CIVIL,Nacional,NO,NO,JUJUY
CLN,Aeródromo,COLÓN,"32°15'39""S  58° 9'22""W",-58.15611111,-32.26083333,20.0,Metros,Colón,5.0,S,PUBLICO,NOCONTROL,RACE,CIVIL,Nacional,NO,NO,ENTRE RÍOS
CLT,Aeródromo,COLONIA CATRIEL,"37°54'29""S  67°49'44""W",-67.82881,-37.90819,313.0,Metros,Catriel,4.0,SSO,PUBLICO,NOCONTROL,RACE,CIVIL,Nacional,NO,NO,RÍO NEGRO
CNA,Aeródromo,CAÑUELAS,"35° 6'42""S  58°43'35""W",-58.72638889,-35.11166667,30.0,Metros,Cañuelas,5.0,SE,PUBLICO,NOCONTROL,RACE,CIVIL,Nacional,NO,NO,BUENOS AIRES
CNO,Aeródromo,CARMEN DE ARECO,"34°25' 5""S  59°52'28""W",-59.87444444,-34.41805556,49.0,Metros,Carmen de Areco,5.0,SO,PUBLICO,NOCONTROL,RACE,CIVIL,Nacional,NO,NO,BUENOS AIRES
CNS,Aeródromo,CANALS,"33°33'45""S  62°52' 9""W",-62.86911,-33.56247,116.0,Metros,Canals,0.5,E,PRIVADO,NOCONTROL,RANO,CIVIL,Nacional,NO,NO,CÓRDOBA
COA,Aeródromo,ARIAS,"33°39'52""S  62°22'30""W",-62.37505556,-33.66431111,121.5,Metros,Arias,3.0,SE,PRIVADO,NOCONTROL,RACE,AEROAPP,Nacional,NO,NO,CÓRDOBA
COL,Aeródromo,RÍO COLORADO,"38°59'42""S  64° 8'25""W",-64.14027778,-38.995,84.0,Metros,Río Colorado,5.0,NO,PRIVADO,NOCONTROL,RACE,,Nacional,NO,NO,RÍO NEGRO
CON,Aeródromo,COLÓN,"33°55'21""S  61° 2'47""W",-61.04638889,-33.9225,90.0,Metros,Colón,5.0,SE,PUBLICO,NOCONTROL,RACE,CIVIL,Nacional,NO,NO,BUENOS AIRES
CPO,Aeródromo,CAMPO DE MAYO,"34°32' 4""S  58°40'19""W",-58.672,-34.53433,24.0,Metros,Estación San Miguel,3.5,ENE,PRIVADO,NOCONTROL,RACE,MIL,Nacional,NO,NO,BUENOS AIRES
CQN,Aeródromo,COSQUIN/SANTA MARÍA,"31°17' 9""S  64°27'20""W",-64.45555556,-31.28583333,700.0,Metros,Cosquín,4.5,SSE,PRIVADO,NOCONTROL,RANO,CIVIL,Nacional,NO,NO,CÓRDOBA
CQZ,Aeródromo,CAÑADA QUIROZ,"27°32'59""S  58°43' 3""W",-58.7175,-27.54972222,55.0,Metros,Corrientes,15.0,SE,PRIVADO,NOCONTROL,RANO,CIVIL,Nacional,NO,NO,CORRIENTES
CRD,Aeródromo,CONCORDIA/AEROCLUB,"31°18'14""S  58° 0'54""W",-58.015,-31.30388889,90.0,Metros,Concordia,10.0,N,PUBLICO,NOCONTROL,RACE,CIVIL,Nacional,NO,NO,ENTRE RÍOS
CRR,Aeródromo,CORRIENTES,"27°26'44""S  58°45'43""W",-58.76194444,-27.44555556,61.5,Metros,Corrientes,7.5,E,PUBLICO,CONTROL,RANE,CIVIL,Internacional,SI,NO,CORRIENTES
CRV,Aeródromo,COMODORO RIVADAVIA/GRAL. E. MOSCONI,"45°47' 7""S  67°27'56""W",-67.46555556,-45.78527778,57.6,Metros,Comodoro Rivadavia,11.0,N,PUBLICO,CONTROL,RASU,JOINT,Internacional,SI,SI,CHUBUT
CSA,Aeródromo,CALCHÍN/AEROCAMPO SERVICIOS AÉREOS,"31°39'27""S  63°16'34""W",-63.27608,-31.65737,202.0,Metros,Calchín,5.0,E,PRIVADO,NOCONTROL,RANO,AEROAPP,Nacional,NO,NO,CÓRDOBA
CSJ,Aeródromo,MORTEROS/CAMPO SAN JOSÉ,"30°46'37""S  62° 0'53""W",-62.01466,-30.77697,101.0,Metros,Morteros,6.0,SO,PRIVADO,NOCONTROL,RANO,AEROAPP,Nacional,NO,NO,CÓRDOBA
CSP,Aeródromo,CAPITÁN SARMIENTO/SAN PATRICIO,"34° 2'25""S  59°41'40""W",-59.69444444,-34.04027778,45.0,Metros,Capitán Sarmiento,16.7,NNE,PRIVADO,NOCONTROL,RACE,CIVIL,Nacional,NO,NO,BUENOS AIRES
CSQ,Aeródromo,CAPITÁN SARMIENTO/QUEBRACHO HERRADO,"34° 9'22""S  59°52'24""W",-59.87336,-34.15622,52.0,Metros,Capitán Sarmiento,8.0,O,PRIVADO,NOCONTROL,RACE,CIVIL,Nacional,NO,NO,BUENOS AIRES
CSR,Aeródromo,CARLOS CASARES,"35°37'47""S  61°23'38""W",-61.39401,-35.6298,80.0,Metros,Carlos Casares,2.0,O,PUBLICO,NOCONTROL,RACE,CIVIL,Nacional,NO,NO,BUENOS AIRES
CSU,Aeródromo,CHAJARI/SUR,"30°48' 8""S  58° 0'51""W",-58.01428056,-30.80216944,69.0,Metros,Chajarí,5.0,SSW,PRIVADO,NOCONTROL,RACE,CIVIL,Nacional,NO,NO,ENTRE RÍOS
CTA,Aeródromo,COPETONAS,"38°44'37""S  60°33'12""W",-60.55343,-38.74354,51.0,Metros,Copetonas,9.0,OSO,PRIVADO,NOCONTROL,RACE,CIVIL,Nacional,NO,NO,BUENOS AIRES
CTP,Aeródromo,CATRILO/ESTABLECIMIENTO LA MARIA PILAR,"36°29'19""S  63°25'59""W",-63.43305556,-36.48861111,125.0,Metros,Catrilo,9.0,S,PRIVADO,NOCONTROL,RACE,CIVIL,Nacional,NO,NO,LA PAMPA
CTS,Aeródromo,CAPITÁN SARMIENTO,"34° 9'52""S  59°43'53""W",-59.73148,-34.16435,49.0,Metros,Capitán Sarmiento,3.0,E,PUBLICO,NOCONTROL,RACE,CIVIL,Nacional,NO,NO,BUENOS AIRES
CUA,Aeródromo,RÍO CUARTO/AEROCLUB,"33° 9'38""S  64°20'14""W",-64.33722222,-33.16055556,424.0,Metros,Río Cuarto,4.0,SSE,PUBLICO,NOCONTROL,RANO,,Nacional,NO,NO,CÓRDOBA
CUM,Aeródromo,LA CUMBRE,"31° 0'21""S  64°31'56""W",-64.5321,-31.00589,1138.0,Metros,La Cumbre,4.5,SO,PUBLICO,NOCONTROL,RANO,CIVIL,Nacional,NO,NO,CÓRDOBA
CUT,Aeródromo,CUTRAL-CO,"38°56'23""S  69°15'54""W",-69.265,-38.93972222,650.0,Metros,Cutral Có,2.0,OSO,PUBLICO,AERADIO,RACE,CIVIL,Nacional,SI,NO,NEUQUÉN
CVV,Aeródromo,VILLA VALERIA,"34°21'23""S  64°54' 4""W",-64.90111111,-34.35638889,290.0,Metros,Villa Valeria,2.0,SE,PRIVADO,NOCONTROL,RANO,AEROAPP,Nacional,NO,NO,CÓRDOBA
CZU,Aeródromo,CURUZÚ CUATIÁ/AEROCLUB,"29°46'44""S  58° 5'49""W",-58.09694444,-29.77888889,80.0,Metros,Curuzú Cuatiá,1.5,NO,PUBLICO,NOCONTROL,RANE,CIVIL,Nacional,NO,NO,CORRIENTES
DAR,Aeródromo,DARREGUEIRA,"37°42'44""S  63° 9'45""W",-63.16253,-37.7122,198.0,Metros,Darregueira,1.5,SSO,PRIVADO,NOCONTROL,RACE,CIVIL,Nacional,NO,NO,BUENOS AIRES
DFR,Aeródromo,DAIREAUX/FUMIGACIONES RODRIGUEZ,"36°35'27""S  61°46'30""W",-61.77504,-36.59076,113.0,Metros,Daireaux,2.0,ONO,PUBLICO,NOCONTROL,RACE,AEROAPP,Nacional,NO,NO,BUENOS AIRES
DIA,Aeródromo,CONCORDIA/COMODORO PIERRESTEGUI,"31°17'49""S  57°59'48""W",-57.99666667,-31.29694444,34.0,Metros,Concordia,12.0,N,PUBLICO,CONTROL,RACE,CIVIL,Nacional,SI,NO,ENTRE RÍOS
DIL,Aeródromo,TANDIL/HÉROES DE MALVINAS,"37°14' 4""S  59°13'43""W",-59.22858611,-37.23437778,175.0,Metros,Tandil,13.0,NO,PUBLICO,CONTROL,RACE,,Nacional,SI,NO,BUENOS AIRES
DIO,Aeródromo,TANDIL/COMANDANTE EDUARDO A. OLIVERO,"37°20'48""S  58°58'58""W",-58.98268,-37.34678,193.0,Metros,Tandil,15.0,ESE,PUBLICO,NOCONTROL,RACE,,Nacional,NO,NO,BUENOS AIRES
DOF,Aeródromo,MARTINEZ DE HOZ/FUMIGACIONES ORTEGA,"35°16'41""S  61°33'13""W",-61.55366,-35.27799,89.0,Metros,Coronel Martinez de Hoz,8.0,ENE,PRIVADO,NOCONTROL,RACE,AEROAPP,Nacional,NO,NO,BUENOS AIRES
DOL,Aeródromo,DOLORES,"36°19'12""S  57°43'14""W",-57.72055556,-36.32,10.0,Metros,Dolores,4.0,O,PUBLICO,NOCONTROL,RACE,CIVIL,Nacional,NO,NO,BUENOS AIRES
DOP,Aeródromo,MENDOZA/LA PUNTILLA,"32°57'45""S  68°52'26""W",-68.87395,-32.96254,942.0,Metros,Ap. El Plumerillo,8.5,SO,PUBLICO,NOCONTROL,RANO,,Nacional,NO,NO,MENDOZA
DOR,Aeródromo,CORONEL DORREGO,"38°44'28""S  61°15'21""W",-61.25583333,-38.74111111,120.0,Metros,Coronel Dorrego,2.0,SE,PUBLICO,NOCONTROL,RACE,CIVIL,Nacional,NO,NO,BUENOS AIRES
DOZ,Aeródromo,MENDOZA/EL PLUMERILLO,"32°49'54""S  68°47'34""W",-68.79277778,-32.83166667,704.0,Metros,Mendoza,8.0,NE,PUBLICO,CONTROL,RANO,,Internacional,SI,SI,MENDOZA
DRA,Aeródromo,SAAVEDRA,"37°44'59""S  62°20' 2""W",-62.33392,-37.74961,317.0,Metros,Saavedra,3.0,NNE,PUBLICO,NOCONTROL,RACE,,Nacional,NO,NO,BUENOS AIRES
DRX,Aeródromo,DAIREAUX,"36°34'58""S  61°47' 3""W",-61.78416667,-36.58277778,116.0,Metros,Daireaux,3.5,O,PRIVADO,NOCONTROL,RACE,CIVIL,Nacional,NO,NO,BUENOS AIRES
DRY,Aeródromo,PUERTO MADRYN/EL TEHUELCHE,"42°45'33""S  65° 6'10""W",-65.10277778,-42.75916667,130.0,Metros,Puerto Madryn,5.3,ONO,PUBLICO,CONTROL,RASU,,Nacional,SI,SI,CHUBUT
DTE,Aeródromo,DIAMANTE,"32° 0'58""S  60°34'60""W",-60.58329,-32.01621,75.0,Metros,Diamante,4.5,NNE,PUBLICO,NOCONTROL,RACE,CIVIL,Nacional,NO,NO,ENTRE RÍOS
EAU,Aeródromo,USHUAIA/EST. AERONAVAL,"54°49'22""S  68°18'15""W",-68.30416667,-54.82277778,6.0,Metros,Ushuaia,1.0,S,PRIVADO,NOCONTROL,RASU,,Nacional,NO,NO,TIERRA DEL FUEGO ANTÁRTIDA E ISLAS DEL ATLÁNTICO SUR
EBF,Aeródromo,ESPERANZA/ANIBAL BRIZI,"31°24'20""S  60°53'58""W",-60.89944444,-31.40555556,39.0,Metros,Esperanza,1.5,N,PRIVADO,NOCONTROL,RACE,AEROAPP,Nacional,NO,NO,SANTA FÉ
ECA,Aeródromo,EL CALAFATE,"50°16'48""S  72° 3'11""W",-72.05305556,-50.28,204.0,Metros,El Calafate,16.6,ENE,PUBLICO,CONTROL,RASU,CIVIL,Nacional,SI,SI,SANTA CRUZ
ECX,Aeródromo,EDUARDO CASTEX,"35°52'56""S  64°16'30""W",-64.275,-35.88222222,183.0,Metros,Eduardo Castex,4.5,NE,PUBLICO,NOCONTROL,RACE,CIVIL,Nacional,NO,NO,LA PAMPA
EDO,Aeródromo,CORONEL OLMEDO,"31°29'12""S  64° 8'27""W",-64.14083,-31.48679,432.0,Metros,Coronel Olmedo,1.2,S,PUBLICO,NOCONTROL,RANO,CIVIL,Nacional,NO,NO,CÓRDOBA
EGO,Aeródromo,LAS PAREJAS/EL GAUCHO,"32°37'46""S  61°32'40""W",-61.54444444,-32.62944444,105.0,Metros,Las Parejas,6.0,NNO,PRIVADO,NOCONTROL,RACE,CIVIL,Nacional,NO,NO,SANTA FÉ
ELC,Aeródromo,VEINTICINCO DE MAYO/ESTANCIA LA CRIOLLA,"35°32'12""S  60° 7'45""W",-60.12916667,-35.53666667,48.0,Metros,25 de Mayo,12.0,SE,PRIVADO,NOCONTROL,RACE,CIVIL,Nacional,NO,NO,BUENOS AIRES
ELD,Aeródromo,ELDORADO,"26°23'49""S  54°34'29""W",-54.57472222,-26.39694444,209.0,Metros,Eldorado,5.0,NE,PUBLICO,AERADIO,RANE,CIVIL,Nacional,NO,NO,MISIONES
ELL,Aeródromo,MAR DEL SUR/EA. LUCILA,"38°18'31""S  58° 6'18""W",-58.105,-38.30861111,22.0,Metros,Mar del Sur,5.0,SE,PRIVADO,NOCONTROL,RACE,,Nacional,NO,NO,BUENOS AIRES
ELP,Aeródromo,SANTA ROSA/EL PAMPERO,"36°35'50""S  64°11'12""W",-64.18672,-36.59712,178.0,Metros,Santa Rosa,10.0,NE,PUBLICO,NOCONTROL,RACE,,Nacional,NO,NO,LA PAMPA
ELZ,Aeródromo,ELIZALDE,"34°58'30""S  57°57'45""W",-57.9625,-34.975,7.0,Metros,Rufino de Elizalde,2.0,SSO,PUBLICO,NOCONTROL,RACE,CIVIL,Nacional,NO,NO,BUENOS AIRES
EMA,Aeródromo,EL MAITÉN,"42° 1'48""S  71°10'15""W",-71.17083333,-42.03,718.0,Metros,El Maitén,3.0,N,PUBLICO,AERADIO,RASU,CIVIL,Nacional,NO,NO,CHUBUT
EML,Aeródromo,CORONEL BRANDSEN/EL MANANTIAL,"35°11'40""S  58°21'36""W",-58.35994,-35.19441,15.0,Metros,Coronel Brandsen,12.5,OSO,PRIVADO,NOCONTROL,RACE,CIVIL,Nacional,NO,NO,BUENOS AIRES
ENO,Aeródromo,MARIANO MORENO,"34°33'36""S  58°47'23""W",-58.78972222,-34.56,32.0,Metros,José C. Paz,7.0,S,PUBLICO,CONTROL,RACE,,Nacional,NO,NO,BUENOS AIRES
ENV,Aeródromo,RIACHUELO/NUEVA VALENCIA,"27°35'15""S  58°49' 8""W",-58.819,-27.58744,57.0,Metros,Corrientes,13.5,S,PRIVADO,NOCONTROL,RANE,,Nacional,NO,NO,CORRIENTES
EPZ,Aeródromo,ESPERANZA,"31°28'24""S  60°50'43""W",-60.84527778,-31.47333333,38.0,Metros,Esperanza,8.0,E,PUBLICO,NOCONTROL,RACE,CIVIL,Nacional,NO,NO,SANTA FÉ
ERE,Aeródromo,CERES,"29°52'18""S  61°55'37""W",-61.92696,-29.87161,87.0,Metros,Ceres,0.7,NE,PUBLICO,AERADIO,RANO,CIVIL,Nacional,NO,NO,SANTA FÉ
ERT,Aeródromo,VILLA MERCEDES/EA. DON ROBERTO,"34° 0' 4""S  65°21'60""W",-65.36657,-34.0011,436.0,Metros,Villa Mercedes,37.0,SSE,PRIVADO,NOCONTROL,RANO,,Nacional,NO,NO,SAN LUIS
ESN,Aeródromo,ESQUINA,"30° 2'51""S  59°32' 7""W",-59.53521,-30.04762,39.0,Metros,Esquina,4.0,S,PUBLICO,NOCONTROL,RANE,CIVIL,Nacional,NO,NO,CORRIENTES
ESQ,Aeródromo,ESQUEL/BRIGADIER GENERAL ANTONIO PARODI,"42°54'14""S  71° 8' 8""W",-71.13554,-42.90381,799.0,Metros,Esquel,12.0,ESE,PUBLICO,CONTROL,RASU,CIVIL,Nacional,SI,SI,CHUBUT
ESR,Aeródromo,EL ESPINILLO/ESTANCIA SAN RAFAEL,"25° 2'36""S  58°35'29""W",-58.59132,-25.04338,88.0,Metros,El Espinillo,8.0,SE,PRIVADO,NOCONTROL,RANE,CIVIL,Nacional,NO,NO,FORMOSA
ETB,Aeródromo,EL TREBOL,"32°12'58""S  61°42'59""W",-61.71634,-32.2162,92.0,Metros,El Trebol,5.0,O,PUBLICO,NOCONTROL,RACE,CIVIL,Nacional,NO,NO,SANTA FÉ
EVC,Aeródromo,GDOR. VALENTIN VIRASORO/EA. VILLA CORINA,"28° 2'28""S  56° 4'16""W",-56.07106,-28.04099,123.0,Metros,Gobernador Valentín Virasoro,5.0,O,PRIVADO,NOCONTROL,RANE,CIVIL,Nacional,NO,NO,CORRIENTES
EZA,Aeródromo,LOS CONQUISTADORES/BUENA ESPERANZA,"30°31'14""S  58°23'59""W",-58.39961,-30.52042,75.0,Metros,Los Conquistadores,8.0,NE,PRIVADO,NOCONTROL,RANE,,Nacional,NO,NO,ENTRE RÍOS
EZE,Aeródromo,EZEIZA/MINISTRO PISTARINI,"34°49'20""S  58°32' 9""W",-58.53583333,-34.82222222,20.5,Metros,Capital Federal,22.0,SSO,PUBLICO,CONTROL,RACE,CIVIL,Internacional,SI,SI,BUENOS AIRES
EZP,Aeródromo,EZPELETA,"34°44'47""S  58°12'12""W",-58.20333333,-34.74638889,3.0,Metros,Ezpeleta,3.0,ENE,PUBLICO,NOCONTROL,RACE,CIVIL,Nacional,NO,NO,BUENOS AIRES
FAE,Aeródromo,FIRMAT/AEROCLUB,"33°25'45""S  61°30'40""W",-61.51124,-33.42909,105.0,Metros,Firmat,3.0,NO,PRIVADO,NOCONTROL,RACE,CIVIL,Nacional,NO,NO,SANTA FÉ
FAG,Aeródromo,FEDERAL/LA ANGELITA,"30°51' 8""S  58°42'24""W",-58.70666667,-30.85222222,70.0,Metros,Federal,13.0,NNE,PRIVADO,NOCONTROL,RACE,CIVIL,Nacional,NO,NO,ENTRE RÍOS
FDD,Aeródromo,FORTÍN DRAGONES/EL DESAFÍO,"23°14'33""S  63°19'23""W",-63.32305556,-23.2425,244.0,Metros,Dragones,2.0,NE,PRIVADO,NOCONTROL,RANO,CIVIL,Nacional,NO,NO,SALTA
FDO,Aeródromo,SAN FERNANDO,"34°27'16""S  58°35'27""W",-58.59091,-34.45454,3.0,Metros,San Fernando,2.0,SO,PUBLICO,CONTROL,RACE,,Internacional,SI,SI,BUENOS AIRES
FIM,Aeródromo,FIRMAT,"33°28' 5""S  61°30' 4""W",-61.50111111,-33.46805556,105.0,Metros,Firmat,1.7,SO,PRIVADO,NOCONTROL,RACE,AEROAPP,Nacional,NO,NO,SANTA FÉ
FLO,Aeródromo,LAS FLORES,"36° 3'59""S  59° 6' 2""W",-59.10055556,-36.06638889,34.0,Metros,Las Flores,5.0,S,PUBLICO,NOCONTROL,RACE,CIVIL,Nacional,NO,NO,BUENOS AIRES
FMA,Aeródromo,CÓRDOBA/CAPITÁN D. OMAR DARIO GELARDI,"31°26'31""S  64°15'30""W",-64.25847,-31.44195,486.0,Metros,Córdoba,7.0,SO,PUBLICO,AERADIO,RANO,MIL,Nacional,NO,NO,CÓRDOBA
FOR,Aeródromo,FORMOSA/AEROCLUB,"26°18' 5""S  58°17'54""W",-58.29833333,-26.30138889,70.0,Metros,Formosa,15.0,SO,PUBLICO,AERADIO,RANE,CIVIL,Nacional,NO,NO,FORMOSA
FRA,Aeródromo,SAN FRANCISCO,"31°24'47""S  62° 7'59""W",-62.13305556,-31.41305556,114.0,Metros,San Francisco,5.0,ONO,PUBLICO,NOCONTROL,RANO,,Nacional,NO,NO,CÓRDOBA
FRO,Aeródromo,ROSARIO DE LA FRONTERA,"25°49'34""S  64°57'48""W",-64.96323,-25.82616,837.0,Metros,Rosario de la Frontera,3.6,S,PRIVADO,NOCONTROL,RANO,CIVIL,Nacional,NO,NO,SALTA
FRS,Aeródromo,FRÍAS,"28°37'43""S  65° 6'48""W",-65.11333333,-28.62861111,330.0,Metros,Frías,2.0,NE,PUBLICO,NOCONTROL,RANO,CIVIL,Nacional,NO,NO,SANTIAGO DEL ESTERO
FSA,Aeródromo,FORMOSA,"26°12'46""S  58°13'41""W",-58.22805556,-26.21277778,59.0,Metros,Formosa,7.0,S,PUBLICO,CONTROL,RANE,CIVIL,Internacional,SI,SI,FORMOSA
FUN,Aeródromo,DEAN FUNES,"30°22'46""S  64°22'47""W",-64.37973,-30.37934,689.0,Metros,Dean Funes,4.5,NNO,PUBLICO,NOCONTROL,RANO,CIVIL,Nacional,NO,NO,CÓRDOBA
FVA,Aeródromo,FLORENCIO VARELA/EL PÁJARO,"34°49'36""S  58°19' 0""W",-58.31666667,-34.82666667,16.0,Metros,Florencio Varela,3.5,SO,PUBLICO,NOCONTROL,RACE,CIVIL,Nacional,NO,NO,BUENOS AIRES
GAA,Aeródromo,GUALEGUAY/AGROAEREO GUALEGUAY,"33° 2'18""S  59°26'24""W",-59.43992,-33.03832,16.0,Metros,Gualeguay,17.0,NO,PRIVADO,NOCONTROL,RACE,CIVIL,Nacional,NO,NO,ENTRE RÍOS
GAI,Aeródromo,GANCEDO/AGROAIRE,"27°29'41""S  61°39'32""W",-61.65877,-27.49486,115.0,Metros,Gancedo,1.0,SE,PRIVADO,NOCONTROL,RANO,CIVIL,Nacional,NO,NO,CHACO
GAL,Aeródromo,RÍO GALLEGOS/PILOTO CIVIL NORBERTO FERNANDEZ,"51°36'32""S  69°18'44""W",-69.31217,-51.60881,19.0,Metros,Río Gallegos,4.5,OSO,PUBLICO,CONTROL,RASU,,Internacional,SI,SI,SANTA CRUZ
GAR,Aeródromo,GENERAL ALVEAR,"35°58'44""S  59°54'25""W",-59.90699,-35.97895,50.0,Metros,General Alvear,11.5,NE,PRIVADO,NOCONTROL,RACE,CIVIL,Nacional,NO,NO,BUENOS AIRES
GAS,Aeródromo,GENERAL VILLEGAS,"34°59'46""S  62°59'56""W",-62.99883,-34.99615,117.0,Metros,General Villegas,4.5,NNE,PUBLICO,NOCONTROL,RACE,CIVIL,Nacional,NO,NO,BUENOS AIRES
GBE,Aeródromo,GENERAL BELGRANO,"35°45' 7""S  58°27'48""W",-58.46327,-35.75191,12.0,Metros,General Belgrano,3.0,E,PRIVADO,NOCONTROL,RACE,CIVIL,Nacional,NO,NO,BUENOS AIRES
GBL,Aeródromo,SALTA/GENERAL BELGRANO,"24°44'45""S  65°25' 8""W",-65.41888889,-24.74583333,1261.0,Metros,Salta,3.0,N,PUBLICO,NOCONTROL,RANO,,Nacional,NO,NO,SALTA
GCR,Aeródromo,GOBERNADOR CRESPO/AEROCLUB,"30°23'14""S  60°22' 9""W",-60.36916667,-30.38722222,52.0,Metros,Gobernador Crespo,4.5,SE,PUBLICO,NOCONTROL,RANO,CIVIL,Nacional,NO,NO,SANTA FÉ
GDH,Aeródromo,GENERAL DEHEZA,"32°44'42""S  63°47'46""W",-63.79611111,-32.745,274.0,Metros,General Deheza,0.3,NE,PUBLICO,NOCONTROL,RANO,CIVIL,Nacional,NO,NO,CÓRDOBA
GDO,Aeródromo,GANCEDO/PULVERIZACIONES.M.H.,"27°28'42""S  61°38'40""W",-61.64441,-27.47845,97.0,Metros,Gancedo,3.0,E,PRIVADO,NOCONTROL,RANO,AEROAPP,Nacional,NO,NO,CHACO
GEP,Aeródromo,GUALEGUAYCHÚ/EL POTRERO,"32°58'29""S  58°15'14""W",-58.25388889,-32.97472222,27.0,Metros,Gualeguaychú,25.0,ONO,PRIVADO,NOCONTROL,RACE,CIVIL,Nacional,NO,NO,ENTRE RÍOS
GES,Aeródromo,VILLA GESELL,"37°14' 4""S  57° 1'26""W",-57.02388889,-37.23444444,10.0,Metros,Villa Gesell,3.0,O,PUBLICO,AERADIO,RACE,,Nacional,SI,NO,BUENOS AIRES
GEZ,Aeródromo,GENERAL RODRIGUEZ/EAA,"34°40'49""S  59° 2' 9""W",-59.03583333,-34.68027778,28.0,Metros,General Rodriguez,10.0,SE,PUBLICO,NOCONTROL,RACE,CIVIL,Nacional,NO,NO,BUENOS AIRES
GIL,Aeródromo,SAN ANDRÉS DE GILES,"34°28'13""S  59°25'29""W",-59.42472222,-34.47027778,51.0,Metros,San Andrés de Giles,3.0,SE,PUBLICO,NOCONTROL,RACE,,Nacional,NO,NO,BUENOS AIRES
GIT,Aeródromo,GOYA/ITALAVIATION,"29° 9'31""S  59°10'46""W",-59.17949,-29.15852,64.0,Metros,Goya,7.0,E,PRIVADO,NOCONTROL,RANE,AEROAPP,Nacional,NO,NO,CORRIENTES
GLH,Aeródromo,GENERAL LAS HERAS,"34°55'14""S  58°54'59""W",-58.91638889,-34.92055556,35.0,Metros,General Las Heras,3.0,E,PUBLICO,NOCONTROL,RACE,CIVIL,Nacional,NO,NO,BUENOS AIRES
GLM,Aeródromo,GUALEGUAYCHÚ/BLM CABAÑAS,"32°58'39""S  58°31'20""W",-58.52222222,-32.9775,7.17,Metros,Gualeguaychú,2.2,OSO,PRIVADO,NOCONTROL,RACE,CIVIL,Nacional,NO,NO,ENTRE RÍOS
GLP,Aeródromo,GUALEGUAYCHÚ/EA. LA PROVIDENCIA,"32°56'29""S  58°33'53""W",-58.56483,-32.9414,20.0,Metros,Gualeguaychú,8.0,N,PRIVADO,NOCONTROL,RACE,CIVIL,Nacional,NO,NO,ENTRE RÍOS
GNA,Aeródromo,GENERAL ALVEAR,"35° 3'34""S  67°41'35""W",-67.69319,-35.05939,454.0,Metros,General Alvear,7.5,S,PUBLICO,NOCONTROL,RANO,CIVIL,Nacional,NO,NO,MENDOZA
GNR,Aeródromo,GENERAL ROCA/DR. ARTURO HUMBERTO ILLIA,"39° 0' 0""S  67°37'11""W",-67.61972222,-39.0,260.0,Metros,General Roca,4.8,NO,PUBLICO,AERADIO,RACE,CIVIL,Nacional,SI,NO,RÍO NEGRO
GNV,Aeródromo,GENERAL VIAMONTE/LOS TOLDOS,"34°58'38""S  61° 1'15""W",-61.02083333,-34.97722222,72.0,Metros,General Viamonte,3.1,NE,PUBLICO,NOCONTROL,RACE,CIVIL,Nacional,NO,NO,BUENOS AIRES
GOC,Aeródromo,GOBERNADOR CASTRO/EL GIRASOL,"33°40' 7""S  59°50' 3""W",-59.83415,-33.66857,28.0,Metros,Gobernador Castro,4.0,SE,PRIVADO,NOCONTROL,RACE,CIVIL,Nacional,NO,NO,BUENOS AIRES
GOM,Aeródromo,CAÑADA DE GÓMEZ,"32°48'32""S  61°21'57""W",-61.36579,-32.80887,82.0,Metros,Cañada de Gómez,1.5,E,PUBLICO,NOCONTROL,RACE,CIVIL,Nacional,NO,NO,SANTA FÉ
GOR,Aeródromo,GOBERNADOR GORDILLO/CHAMICAL,"30°20'39""S  66°17'39""W",-66.29403,-30.34416,458.0,Metros,El Chamical,2.0,E,PUBLICO,AERADIO,RANO,CIVIL,Nacional,NO,NO,LA RIOJA
GOY,Aeródromo,GOYA,"29° 6'21""S  59°13' 7""W",-59.21874,-29.10595,39.0,Metros,Goya,6.0,NE,PUBLICO,CONTROL,RANE,CIVIL,Nacional,NO,NO,CORRIENTES
GOZ,Aeródromo,GÓMEZ,"35° 5'44""S  58° 5' 9""W",-58.0858,-35.09556,19.0,Metros,Gómez,8.0,SE,PUBLICO,NOCONTROL,RACE,CIVIL,Nacional,NO,NO,BUENOS AIRES
GPF,Aeródromo,GENERAL PICO/CEREALES ANAHÍ RUCA,"35°40'25""S  63°43' 5""W",-63.71805556,-35.67361111,139.0,Metros,General Pico,3.0,E,PRIVADO,NOCONTROL,RACE,AEROAPP,Nacional,NO,NO,LA PAMPA
GPI,Aeródromo,GENERAL PICO,"35°41'41""S  63°45'32""W",-63.75888889,-35.69472222,140.0,Metros,General Pico,3.5,SO,PUBLICO,AERADIO,RACE,CIVIL,Nacional,SI,SI,LA PAMPA
GPK,Aeródromo,GENERAL PINEDO/KALBERMATTER,"27°15'37""S  61°28'28""W",-61.47444444,-27.26027778,101.0,Metros,General Pinedo,20.0,NO,PRIVADO,NOCONTROL,RANE,CIVIL,Nacional,NO,NO,CHACO
GPO,Aeródromo,GENERAL PINEDO,"27°20'38""S  61°16'29""W",-61.27484,-27.34401,91.0,Metros,General Pinedo,2.0,E,PUBLICO,NOCONTROL,RANE,CIVIL,Nacional,NO,NO,CHACO
GRA,Aeródromo,RÍO GRANDE,"53°46'39""S  67°44'58""W",-67.74952,-53.7776,20.0,Metros,Río Grande,9.0,NO,PUBLICO,CONTROL,RASU,,Internacional,SI,SI,TIERRA DEL FUEGO ANTÁRTIDA E ISLAS DEL ATLÁNTICO SUR
GRE,Aeródromo,GOBERNADOR GREGORES,"48°46'60""S  70° 9'44""W",-70.16222222,-48.78333333,356.0,Metros,Gobernador Gregores,5.0,E,PUBLICO,AERADIO,RASU,CIVIL,Nacional,NO,NO,SANTA CRUZ
GRZ,Aeródromo,GENERAL RODRIGUEZ,"34°34'58""S  59° 0' 2""W",-59.00055556,-34.58277778,28.0,Metros,General Rodriguez,10.0,SE,PRIVADO,NOCONTROL,RACE,ULM,Nacional,NO,NO,BUENOS AIRES
GSE,Aeródromo,GUAVIRAVÍ/EA. SANTA ELISA,"29°18'16""S  56°52'52""W",-56.88124,-29.30444,63.0,Metros,Guaviraví,8.7,NO,PRIVADO,NOCONTROL,RANE,CIVIL,Nacional,NO,NO,CORRIENTES
GTE,Aeródromo,GUATRACHE,"37°42'19""S  63°33'25""W",-63.55708,-37.70516,175.0,Metros,Guatrache,3.0,SSO,PUBLICO,NOCONTROL,RACE,CIVIL,Nacional,NO,NO,LA PAMPA
GUA,Aeródromo,GUALEGUAYCHÚ,"33° 0'20""S  58°36'46""W",-58.61277778,-33.00555556,23.0,Metros,Gualeguaychú,8.0,O,PUBLICO,CONTROL,RACE,CIVIL,Nacional,NO,NO,ENTRE RÍOS
GVA,Aeródromo,GENERAL ALVEAR/AEROCLUB,"34°58'11""S  67°43'27""W",-67.72416667,-34.96972222,466.0,Metros,General Alvear,4.0,O,PRIVADO,NOCONTROL,RANO,CIVIL,Nacional,NO,NO,MENDOZA
GVZ,Aeródromo,GONZALEZ CHAVES,"38° 1'59""S  60° 8' 2""W",-60.13388889,-38.03305556,194.0,Metros,Adolfo Gonzalez Cháves,2.5,O,PUBLICO,NOCONTROL,RACE,CIVIL,Nacional,NO,NO,BUENOS AIRES
GYA,Aeródromo,GOYA/AEROCLUB,"29°10'11""S  59°14'49""W",-59.24699,-29.16975,38.0,Metros,Goya,1.5,SE,PRIVADO,NOCONTROL,RANE,CIVIL,Nacional,NO,NO,CORRIENTES
GYT,Aeródromo,GOBERNADOR GARMENDIA/AGRO SERVICIO YORIS,"26°34'45""S  64°31'43""W",-64.52869,-26.57916,318.0,Metros,Gobernador Garmendia,3.0,E,PRIVADO,NOCONTROL,RANO,AEROAPP,Nacional,NO,NO,TUCUMÁN
HDS,Aeródromo,HENDERSON,"36°18'55""S  61°44'52""W",-61.74777778,-36.31527778,150.0,Metros,Henderson,2.5,OSO,PUBLICO,NOCONTROL,RACE,CIVIL,Nacional,NO,NO,BUENOS AIRES
HGS,Aeródromo,HUGHES/PLUS AGROSERVICIOS AÉREOS,"33°48'40""S  61°20'15""W",-61.3375,-33.81111111,97.0,Metros,Hughes,1.0,S,PRIVADO,NOCONTROL,RACE,AEROAPP,Nacional,NO,NO,SANTA FÉ
HSJ,Aeródromo,CURUZÚ CUATIÁ/EA. SAN JUAN,"29°36' 6""S  58° 1'19""W",-58.02205,-29.60179,82.0,Metros,Curuzú Cuatiá,20.0,N,PRIVADO,NOCONTROL,RANE,CIVIL,Nacional,NO,NO,CORRIENTES
HUE,Aeródromo,CARHUÉ,"37°11'38""S  62°46'53""W",-62.78138889,-37.19388889,110.0,Metros,Carhué,1.5,SO,PRIVADO,NOCONTROL,RACE,CIVIL,Nacional,NO,NO,BUENOS AIRES
HUG,Aeródromo,HUANGUELÉN,"37° 3'10""S  61°57'12""W",-61.95324,-37.05267,158.0,Metros,Huanguelén,2.0,N,PRIVADO,NOCONTROL,RACE,CIVIL,Nacional,NO,NO,BUENOS AIRES
HUI,Aeródromo,HUINCA RENANCÓ,"34°49'13""S  64°22'27""W",-64.37412,-34.82041,180.0,Metros,Huinca Renancó,2.0,N,PUBLICO,NOCONTROL,RACE,CIVIL,Nacional,NO,NO,CÓRDOBA
HUM,Aeródromo,HUMBOLDT/ESTABLECIMIENTO LA ADELITA,"31°23'23""S  61° 8'33""W",-61.14256,-31.38986,50.0,Metros,Humboldt,5.5,O,PRIVADO,NOCONTROL,RACE,AEROAPP,Nacional,NO,NO,SANTA FÉ
HZA,Aeródromo,MAIPÚ/ESTABLECIMIENTO EL ARAZA,"36°46'33""S  57°38'34""W",-57.64277778,-36.77583333,93.0,Metros,Estación Santo Domingo,8.5,SE,PRIVADO,NOCONTROL,RACE,,Nacional,NO,NO,BUENOS AIRES
IAA,Aeródromo,INTENDENTE ALVEAR/AZCARATE IRATORSA,"35°11'19""S  63°36'38""W",-63.61052,-35.18862,127.0,Metros,Intendente Alvear,5.0,NNO,PRIVADO,NOCONTROL,RACE,AEROAPP,Nacional,NO,NO,LA PAMPA
IAC,Aeródromo,LA QUIACA/DR. GUILLERMO EUGENIO SNOPEK,"22° 9'43""S  65°34'19""W",-65.57207,-22.16195,3480.0,Metros,La Quiaca,6.0,SE,PUBLICO,NOCONTROL,RANO,CIVIL,Nacional,NO,NO,JUJUY
IAL,Aeródromo,INTENDENTE ALVEAR,"35°14' 1""S  63°33'57""W",-63.56571,-35.23368,127.0,Metros,Intendente Alvear,2.5,E,PUBLICO,NOCONTROL,RACE,CIVIL,Nacional,NO,NO,LA PAMPA
IBA,Aeródromo,INES INDART/BELINGUERES AVIACIÓN,"34°16'40""S  60°30'16""W",-60.50444444,-34.27777778,63.7,Metros,Salto,14.0,NNE,PRIVADO,NOCONTROL,RACE,CIVIL,Nacional,NO,NO,BUENOS AIRES
IBY,Aeródromo,ISLAS DEL IBICUY,"33°44'38""S  58°40'52""W",-58.68099,-33.7439,6.0,Metros,Islas de Ibicuy,3.0,S,PRIVADO,NOCONTROL,RACE,CIVIL,Nacional,NO,NO,ENTRE RÍOS
ICO,Aeródromo,COMODORO RIVADAVIA/13 DE DICIEMBRE,"45°54'15""S  67°33'32""W",-67.55888889,-45.90416667,52.0,Metros,Comodoro Rivadavia,8.0,SSO,PUBLICO,NOCONTROL,RASU,CIVIL,Nacional,NO,NO,CHUBUT
IGL,Aeródromo,INGENIERO LUIGGI,"35°21'20""S  64°28'31""W",-64.47527,-35.35546,193.0,Metros,Ingeniero Luiggi,2.0,N,PUBLICO,NOCONTROL,RACE,CIVIL,Nacional,NO,NO,LA PAMPA
IGU,Aeródromo,CATARATAS DEL  IGUAZÚ/MY. D. CARLOS EDUARDO KRAUSE,"25°44'14""S  54°28'25""W",-54.47354,-25.73722,279.0,Metros,Cataratas del Iguazú,18.0,SSE,PUBLICO,CONTROL,RANE,CIVIL,Internacional,SI,SI,MISIONES
IJC,Aeródromo,INGENIERO JACOBACCI/CABO F.A.A. H. R. BORDÓN,"41°19'16""S  69°34'34""W",-69.57611111,-41.32111111,892.0,Metros,Ingeniero Jacobacci,2.5,ONO,PUBLICO,AERADIO,RASU,CIVIL,Nacional,NO,NO,RÍO NEGRO
ILD,Aeródromo,CASILDA,"33° 3'45""S  61°12'35""W",-61.20973,-33.06242,77.0,Metros,Casilda,3.0,ONO,PUBLICO,NOCONTROL,RACE,CIVIL,Nacional,NO,NO,SANTA FÉ
ILM,Aeródromo,QUILMES,"34°42'23""S  58°14'41""W",-58.24461,-34.70643,2.0,Metros,Quilmes,2.0,ENE,PRIVADO,AERADIO,RACE,,Nacional,NO,NO,BUENOS AIRES
IRA,Aeródromo,MIRAMAR,"38°13'34""S  57°52'15""W",-57.87083333,-38.22611111,13.0,Metros,Miramar,4.0,NO,PUBLICO,AERADIO,RACE,,Nacional,NO,NO,BUENOS AIRES
IRI,Aeródromo,BERNARDO DE IRIGOYEN,"26°16'54""S  53°40'21""W",-53.67257,-26.28171,815.0,Metros,Bernardo de Irigoyen,4.0,SO,PUBLICO,AERADIO,RANE,CIVIL,Nacional,NO,NO,MISIONES
ITO,Aeródromo,CHILECITO/BRIG. MY. JUAN FACUNDO QUIROGA,"29°13'24""S  67°26'22""W",-67.43944444,-29.22333333,945.0,Metros,Chilecito,7.2,SE,PUBLICO,NOCONTROL,RANO,CIVIL,Nacional,NO,NO,LA RIOJA
IVB,Aeródromo,ISLA VERDE/D. HÉCTOR BIONDI,"33°14'48""S  62°24'55""W",-62.41538,-33.24674,118.0,Metros,Isla Verde,1.0,SE,PUBLICO,NOCONTROL,RACE,CIVIL,Nacional,NO,NO,CÓRDOBA
IVL,Aeródromo,ISLA VERDE/BIONDI,"33°13'24""S  62°24'17""W",-62.40464,-33.2232,119.0,Metros,Isla Verde,2.0,NNE,PRIVADO,NOCONTROL,RANO,AEROAPP,Nacional,NO,NO,CÓRDOBA
JAH,Aeródromo,JUNÍN DE LOS ANDES/HOSTERIA SAN HUBERTO,"39°42'14""S  71°10'12""W",-71.17,-39.70388889,691.0,Metros,Junín de los Andes,22.0,NE,PRIVADO,NOCONTROL,RACE,CIVIL,Nacional,NO,NO,NEUQUÉN
JAR,Aeródromo,JACINTO ARAUZ,"38° 3'58""S  63°25'44""W",-63.42902,-38.066,160.0,Metros,Jacinto Arauz,1.0,N,PRIVADO,NOCONTROL,RACE,CIVIL,Nacional,NO,NO,LA PAMPA
JBA,Aeródromo,JUAN BAUTISTA ALBERDI,"34°29' 1""S  61°54'16""W",-61.90455,-34.48351,102.0,Metros,Juan Bautista Alberdi,10.0,SO,PRIVADO,NOCONTROL,RACE,AEROAPP,Nacional,NO,NO,BUENOS AIRES
JCM,Aeródromo,JUÁREZ CELMAN/BRIG. MY. JUAN IGNACIO SAN MARTÍN,"31°12'40""S  64° 9'38""W",-64.16064,-31.21113,495.0,Metros,Juárez Celman,20.0,N,PUBLICO,NOCONTROL,RANO,CIVIL,Nacional,NO,NO,CÓRDOBA
JDA,Aeródromo,JARDÍN DE AMÉRICA,"27° 1'57""S  55°11'53""W",-55.19805556,-27.0325,205.0,Metros,Jardín América,3.0,ENE,PRIVADO,NOCONTROL,RANE,CIVIL,Nacional,NO,NO,MISIONES
JES,Aeródromo,JESÚS MARÍA,"30°59'18""S  64° 4'41""W",-64.07797,-30.9883,530.0,Metros,Jesús Maria,1.8,ESE,PUBLICO,NOCONTROL,RANO,CIVIL,Nacional,NO,NO,CÓRDOBA
JGA,Aeródromo,JOAQUIN V. GONZALEZ/AGROPECUARIA RÍO JURAMENTO,"25°11'12""S  64° 4'53""W",-64.08135,-25.1866,1184.0,Metros,Salta,8.0,SE,PRIVADO,NOCONTROL,RANO,CIVIL,Nacional,NO,NO,SALTA
JLA,Aeródromo,JUNÍN DE LOS ANDES/SAN IGNACIO,"39°50'44""S  70°51'55""W",-70.86537,-39.84555,691.0,Metros,Junín de los Andes,22.0,NE,PRIVADO,NOCONTROL,RACE,CIVIL,Nacional,NO,NO,NEUQUÉN
JMB,Aeródromo,TRES LOMAS,"36°26'35""S  62°52'45""W",-62.87927,-36.44296,116.0,Metros,Tres Lomas,2.0,NO,PRIVADO,NOCONTROL,RACE,,Nacional,NO,NO,BUENOS AIRES
JOC,Aeródromo,JOVITA/ANTARES,"34°31'55""S  63°57'38""W",-63.96055556,-34.53194444,154.0,Metros,Jovita,2.0,SO,PRIVADO,NOCONTROL,RACE,AEROAPP,Nacional,NO,NO,CÓRDOBA
JOR,Aeródromo,SAN JORGE,"31°52'58""S  61°50'36""W",-61.84333333,-31.88277778,106.0,Metros,San Jorge,2.5,NE,PUBLICO,NOCONTROL,RANO,,Nacional,NO,NO,SANTA FÉ
JRZ,Aeródromo,JUÁREZ,"37°42'22""S  59°47'31""W",-59.79194444,-37.70611111,212.0,Metros,Benito Juárez,3.0,SSO,PUBLICO,NOCONTROL,RACE,CIVIL,Nacional,NO,NO,BUENOS AIRES
JSM,Aeródromo,JOSÉ DE SAN MARTÍN,"44° 2'50""S  70°26'47""W",-70.44638889,-44.04722222,734.0,Metros,José de San Martín,0.0,Lindando,PUBLICO,AERADIO,RASU,CIVIL,Nacional,NO,NO,CHUBUT
JUA,Aeródromo,SAN JUAN/DOMINGO FAUSTINO SARMIENTO,"31°34'17""S  68°25' 6""W",-68.41833333,-31.57138889,597.0,Metros,San Juan,12.0,SE,PUBLICO,CONTROL,RANO,,Nacional,SI,SI,SAN JUAN
JUJ,Aeródromo,JUJUY/GOBERNADOR GUZMÁN,"24°23'33""S  65° 5'52""W",-65.09777778,-24.3925,920.0,Metros,San Salvador de Jujuy,33.0,SE,PUBLICO,CONTROL,RANO,CIVIL,Internacional,SI,SI,JUJUY
LAE,Aeródromo,PUNTA ROJA/EA. LA ELBA,"44°34'22""S  65°22'14""W",-65.37055556,-44.57277778,14.0,Metros,Camarones,37.0,NE,PRIVADO,NOCONTROL,RASU,CIVIL,Nacional,NO,NO,CHUBUT
LAM,Aeródromo,GENERAL LAMADRID,"37°13'34""S  61°16'44""W",-61.27888889,-37.22611111,171.0,Metros,General La Madrid,3.0,NO,PUBLICO,NOCONTROL,RACE,CIVIL,Nacional,NO,NO,BUENOS AIRES
LAN,Aeródromo,LANTERI,"28°51'27""S  59°40'22""W",-59.67277778,-28.8575,56.0,Metros,Lanteri,3.5,SO,PRIVADO,NOCONTROL,RANE,AEROAPP,Nacional,NO,NO,SANTA FÉ
LAR,Aeródromo,LA RIOJA/CAP. VICENTE A. ALMONACID,"29°22'50""S  66°47'45""W",-66.79583333,-29.38055556,438.0,Metros,La Rioja,7.0,NE,PUBLICO,CONTROL,RANO,CIVIL,Nacional,SI,SI,LA RIOJA
LAU,Aeródromo,TRENQUE LAUQUEN,"36° 0'57""S  62°41'38""W",-62.69388889,-36.01583333,99.0,Metros,Trenque Lauquen,4.0,SE,PUBLICO,NOCONTROL,RACE,,Nacional,NO,NO,BUENOS AIRES
LAZ,Aeródromo,LA PAZ/AEROCLUB,"30°44'37""S  59°34' 8""W",-59.56887,-30.74368,61.0,Metros,La Paz,6.0,E,PRIVADO,NOCONTROL,RACE,CIVIL,Nacional,NO,NO,ENTRE RÍOS
LBI,Aeródromo,LOBERIA,"38°11'22""S  58°47'14""W",-58.7872,-38.18951,81.0,Metros,Lobería,2.5,S,PRIVADO,NOCONTROL,RACE,,Nacional,NO,NO,BUENOS AIRES
LCC,Aeródromo,LA CARLOTA/CASAJUS,"33°23'18""S  63°18'20""W",-63.30551,-33.38823,143.0,Metros,La Carlota,3.5,NNO,PRIVADO,NOCONTROL,RANO,AEROAPP,Nacional,NO,NO,CÓRDOBA
LCP,Aeródromo,LONCOPUÉ,"38° 4'54""S  70°38'39""W",-70.64406,-38.08177,1106.0,Metros,Loncopué,3.0,OSO,PUBLICO,NOCONTROL,RACE,,Nacional,NO,NO,NEUQUÉN
LCT,Aeródromo,LA CARLOTA,"33°27'27""S  63°18'49""W",-63.31375,-33.45761,154.0,Metros,La Carlota,4.0,S,PRIVADO,NOCONTROL,RANO,CIVIL,Nacional,NO,NO,CÓRDOBA
LDA,Aeródromo,LEZAMA/DON ALBERTO,"35°52'11""S  57°52'36""W",-57.87667,-35.86972,8.0,Metros,Manuel J. Cobo,2.0,NE,PRIVADO,NOCONTROL,RACE,AEROAPP,Nacional,NO,NO,BUENOS AIRES
LDG,Aeródromo,LAGUNA DE GÓMEZ,"34°39'17""S  61° 0'33""W",-61.0091,-34.65469,80.0,Metros,Junín,11.0,SSO,PUBLICO,NOCONTROL,RACE,CIVIL,Nacional,NO,NO,BUENOS AIRES
LDR,Aeródromo,VILLA DOLORES,"31°56'51""S  65° 8'51""W",-65.1475,-31.9475,563.0,Metros,Cordoba,0.0,Lindando,PUBLICO,AERADIO,RANO,,Nacional,NO,NO,CÓRDOBA
LEN,Aeródromo,BELÉN DE ESCOBAR,"34°17'55""S  58°47'56""W",-58.79888889,-34.29861111,4.0,Metros,Belén de Escobar,0.0,S,PRIVADO,NOCONTROL,RACE,CIVIL,Nacional,NO,NO,BUENOS AIRES
LEO,Aeródromo,LEONES,"32°38'34""S  62°19' 1""W",-62.31681,-32.64264,114.0,Metros,Leones,3.0,NO,PRIVADO,NOCONTROL,RANO,CIVIL,Nacional,NO,NO,CÓRDOBA
LGM,Aeródromo,SARMIENTO/LAGO MUSTERS,"45°34'30""S  69° 4'38""W",-69.07713,-45.57506,27.0,Metros,Sarmiento,0.0,N,PRIVADO,NOCONTROL,RASU,,Nacional,NO,NO,CHUBUT
LHP,Aeródromo,LAS HERAS/LOS PERALES,"46°11'31""S  69°17'13""W",-69.28694444,-46.19194444,426.0,Metros,Las Heras,47.0,NO,PRIVADO,NOCONTROL,RASU,CIVIL,Nacional,NO,NO,SANTA CRUZ
LIB,Aeródromo,PASO DE LOS LIBRES,"29°41'17""S  57° 9' 8""W",-57.15222222,-29.68805556,70.0,Metros,Paso de los Libres,6.0,NO,PUBLICO,CONTROL,RANE,,Internacional,SI,NO,CORRIENTES
LIN,Aeródromo,LINCOLN,"34°53'27""S  61°31'53""W",-61.53138889,-34.89083333,85.0,Metros,Lincoln,3.0,S,PUBLICO,NOCONTROL,RACE,,Nacional,NO,NO,BUENOS AIRES
LIO,Aeródromo,NUEVE DE JULIO,"35°23'58""S  60°55'60""W",-60.93333333,-35.39944444,75.0,Metros,9 de Julio,5.0,NO,PUBLICO,NOCONTROL,RACE,,Nacional,NO,NO,BUENOS AIRES
LJN,Aeródromo,LUJÁN,"34°33' 2""S  59° 4'45""W",-59.07916667,-34.55055556,25.0,Metros,Luján,2.0,ENE,PRIVADO,NOCONTROL,RACE,,Nacional,NO,NO,BUENOS AIRES
LLA,Aeródromo,LAS LAJITAS/AEROSOLUCIONES,"24°44'56""S  64°14' 6""W",-64.235,-24.74888889,492.0,Metros,Las Lajitas,4.0,OSO,PRIVADO,NOCONTROL,RANO,AEROAPP,Nacional,NO,NO,SALTA
LLC,Aeródromo,LONGCHAMPS/LA CAÍDA,"34°51'45""S  58°20'41""W",-58.34472222,-34.8625,28.0,Metros,Longchamps,4.0,E,PRIVADO,NOCONTROL,RACE,,Nacional,NO,NO,BUENOS AIRES
LLE,Aeródromo,LIBERTAD/LA ESMERALDA,"29°59'42""S  57°50'18""W",-57.83833,-29.9951,81.0,Metros,Libertad,8.0,NNO,PRIVADO,NOCONTROL,RANE,,Nacional,NO,NO,CORRIENTES
LLJ,Aeródromo,LAS LAJAS,"38°32'18""S  70°20'12""W",-70.3367,-38.53828,850.0,Metros,Las Lajas,3.0,SE,PUBLICO,NOCONTROL,RACE,CIVIL,Nacional,NO,NO,NEUQUÉN
LMD,Aeródromo,JUAN N. FERNÁNDEZ/LA MADRUGADA,"38° 0'30""S  59°20'60""W",-59.34998,-38.00845,137.0,Metros,Juan N. Fernández,7.0,O,PRIVADO,NOCONTROL,RACE,CIVIL,Nacional,NO,NO,BUENOS AIRES
LMF,Aeródromo,LOS MOLINOS/ESTABLECIMIENTO LA FLORENCIA,"33° 4'45""S  61°18'59""W",-61.31628,-33.07912,75.0,Metros,Los Molinos,3.0,NNE,PRIVADO,NOCONTROL,RACE,AEROAPP,Nacional,NO,NO,SANTA FÉ
LNH,Aeródromo,LAGO NAHUEL HUAPI,"41° 5'50""S  71°10'36""W",-71.17678,-41.09725,780.0,Metros,San Carlos de Bariloche,11.0,ENE,PUBLICO,NOCONTROL,RACE,CIVIL,Nacional,NO,NO,RÍO NEGRO
LNV,Aeródromo,LINCOLN/LA NUEVA,"34°56'41""S  61°18' 8""W",-61.30217,-34.94464,75.0,Metros,Lincoln,22.0,SE,PRIVADO,NOCONTROL,RACE,,Nacional,NO,NO,BUENOS AIRES
LPB,Aeródromo,COMANDANTE LUIS PIEDRABUENA,"49°59'42""S  68°56'59""W",-68.94984,-49.99499,24.0,Metros,Comandante Luis Piedrabuena,3.5,SSO,PRIVADO,NOCONTROL,RASU,CIVIL,Nacional,NO,NO,SANTA CRUZ
LPP,Aeródromo,LAS PALMAS/PETRUK,"27° 5'16""S  58°40'10""W",-58.66944444,-27.08777778,54.0,Metros,Las Palmas,4.0,SSE,PRIVADO,NOCONTROL,RANE,AEROAPP,Nacional,NO,NO,CHACO
LPR,Aeródromo,LAPRIDA,"37°31'15""S  60°46'42""W",-60.77833333,-37.52083333,210.0,Metros,Laprida,2.0,NE,PUBLICO,NOCONTROL,RACE,CIVIL,Nacional,NO,NO,BUENOS AIRES
LRE,Aeródromo,LA RAMADA DE ABAJO/DON EMILIO,"26°43'58""S  64°53' 5""W",-64.88463,-26.73288,530.0,Metros,La Ramada,5.0,SE,PRIVADO,NOCONTROL,RANO,AEROAPP,Nacional,NO,NO,TUCUMÁN
LRS,Aeródromo,LAS ROSAS,"32°29'35""S  61°34'54""W",-61.58166667,-32.49305556,102.0,Metros,Las Rosas,1.0,S,PUBLICO,NOCONTROL,RACE,CIVIL,Nacional,NO,NO,SANTA FÉ
LRT,Aeródromo,LAS ROSAS/HORIZONTE APLICACIONES AÉREAS,"32°31'13""S  61°33' 3""W",-61.55083333,-32.52027778,98.0,Metros,Las Rosas,6.0,SE,PRIVADO,NOCONTROL,RACE,AEROAPP,Nacional,NO,NO,SANTA FÉ
LVA,Aeródromo,LAS VARAS/MACIAS,"31°49' 2""S  62°37'49""W",-62.63027778,-31.81722222,126.0,Metros,Las Varas,2.0,SO,PRIVADO,NOCONTROL,RANO,AEROAPP,Nacional,NO,NO,CÓRDOBA
LVL,Aeródromo,LAS VARILLAS,"31°53'30""S  62°42'17""W",-62.70472222,-31.89166667,135.0,Metros,Las Varillas,2.0,SE,PRIVADO,NOCONTROL,RANO,,Nacional,NO,NO,CÓRDOBA
LVM,Aeródromo,LUJÁN/EA. VILLA MARÍA,"34°38'37""S  59° 7'38""W",-59.12727,-34.6436,32.0,Metros,Luján,9.0,S,PRIVADO,NOCONTROL,RACE,,Nacional,NO,NO,BUENOS AIRES
LVR,Aeródromo,LAS VARILLAS/GINEVRO,"31°51'29""S  62°50'40""W",-62.84449,-31.85801,145.0,Metros,Las Varillas,12.0,O,PRIVADO,NOCONTROL,RANO,AEROAPP,Nacional,NO,NO,CÓRDOBA
LYE,Aeródromo,LABOULAYE,"34° 8' 8""S  63°21'45""W",-63.36237,-34.13544,137.0,Metros,Laboulaye,2.7,E,PUBLICO,NOCONTROL,RACE,CIVIL,Nacional,NO,NO,CÓRDOBA
LZA,Aeródromo,LAGO LA ESPERANZA,"42°13' 2""S  71°48'19""W",-71.80522,-42.21713,560.0,Metros,Lago Puelo,24.0,SO,PRIVADO,NOCONTROL,RASU,CIVIL,Nacional,NO,NO,CHUBUT
MAB,Aeródromo,MAGGIOLO/SAMAVE,"33°47'11""S  62° 7'41""W",-62.12792,-33.78639,109.0,Metros,Maggiolo,13.0,SE,PRIVADO,NOCONTROL,RACE,AEROAPP,Nacional,NO,NO,SANTA FÉ
MAC,Aeródromo,MACACHIN,"37° 8'45""S  63°40'44""W",-63.67893,-37.14581,140.0,Metros,Macachín,0.0,SO,PRIVADO,NOCONTROL,RACE,,Nacional,NO,NO,LA PAMPA
MAD,Aeródromo,GENERAL MADARIAGA,"37° 2'19""S  57° 8'11""W",-57.13638889,-37.03861111,7.0,Metros,General Juan Madariaga,4.0,S,PUBLICO,NOCONTROL,RACE,CIVIL,Nacional,NO,NO,BUENOS AIRES
MAI,Aeródromo,MONTE MAIZ,"33°12'40""S  62°37'52""W",-62.63111111,-33.21111111,113.0,Metros,Monte Maiz,2.0,O,PUBLICO,NOCONTROL,RANO,,Nacional,NO,NO,CÓRDOBA
MAO,Aeródromo,VEINTICINCO DE MAYO,"37°48'35""S  67°39'34""W",-67.65938,-37.80974,347.0,Metros,25 de Mayo,7.5,ESE,PRIVADO,NOCONTROL,RACE,CIVIL,Nacional,NO,NO,LA PAMPA
MAQ,Aeródromo,MAQUINCHAO,"41°14'34""S  68°42'30""W",-68.70828,-41.24288,880.0,Metros,Maquinchao,0.0,NE,PUBLICO,NOCONTROL,RASU,,Nacional,NO,NO,RÍO NEGRO
MAT,Aeródromo,MATANZA,"34°43'42""S  58°30' 2""W",-58.50055556,-34.72833333,3.0,Metros,La Matanza,3.0,NNE,PUBLICO,NOCONTROL,RACE,,Nacional,NO,NO,BUENOS AIRES
MAY,Aeródromo,VEINTICINCO DE MAYO,"35°26'47""S  60° 5'19""W",-60.08861111,-35.44638889,89.0,Metros,25 de Mayo,7.0,ENE,PRIVADO,NOCONTROL,RACE,,Nacional,NO,NO,BUENOS AIRES
MBF,Aeródromo,MONTE BUEY/PEDRO FERRARI,"32°55'54""S  62°26' 5""W",-62.43474,-32.93173,108.0,Metros,Monte Buey,2.0,ESE,PUBLICO,NOCONTROL,RANO,,Nacional,NO,NO,CÓRDOBA
MBI,Aeródromo,VICECOMODORO MARAMBIO,"64°14'21""S  56°37'51""W",-56.63085,-64.23913,209.5,Metros,Isla Marambio. Mar de Weddell.,0.0,,PUBLICO,CONTROL,RASU,MIL,Nacional,NO,NO,TIERRA DEL FUEGO ANTÁRTIDA E ISLAS DEL ATLÁNTICO SUR
MBL,Aeródromo,MIRAMAR/BELLAMAR,"38°23' 8""S  58° 8' 1""W",-58.13353,-38.38559,13.0,Metros,Miramar,29.5,SO,PRIVADO,NOCONTROL,RACE,,Nacional,NO,NO,BUENOS AIRES
MCL,Aeródromo,MINA CLAVERO,"31°43'49""S  64°59'16""W",-64.98777778,-31.73027778,970.0,Metros,Mina Clavero,1.0,E,PUBLICO,NOCONTROL,RANO,,Nacional,NO,NO,CÓRDOBA
MCO,Aeródromo,LOS MENUCOS,"40°48'57""S  68° 4'19""W",-68.07203,-40.81596,784.0,Metros,Los Menucos,3.0,SO,PUBLICO,NOCONTROL,RASU,,Nacional,NO,NO,RÍO NEGRO
MCP,Aeródromo,MONTE CASEROS/EL PILINCHO,"30°23'14""S  57°58' 6""W",-57.96833333,-30.38722222,71.0,Metros,Monte Caseros,35.0,OSO,PRIVADO,NOCONTROL,RANE,,Nacional,NO,NO,CORRIENTES
MCS,Aeródromo,MONTE CASEROS,"30°16'13""S  57°38'22""W",-57.63944444,-30.27027778,52.0,Metros,Monte Caseros,1.5,S,PUBLICO,AERADIO,RANE,,Nacional,NO,NO,CORRIENTES
MCT,Aeródromo,MONTE CASEROS/TIMBOY,"30°14' 7""S  57°50'45""W",-57.84572,-30.23519,65.0,Metros,Monte Caseros,21.0,ONO,PRIVADO,NOCONTROL,RANE,,Nacional,NO,NO,CORRIENTES
MDB,Aeródromo,MAR DEL PLATA/BATAN,"38° 0'42""S  57°40'39""W",-57.6775,-38.01166667,62.0,Metros,Batán,11.5,O,PUBLICO,NOCONTROL,RACE,,Nacional,NO,NO,BUENOS AIRES
MDP,Aeródromo,MAR DEL PLATA/ASTOR PIAZZOLLA,"37°56' 3""S  57°34'24""W",-57.57333333,-37.93416667,22.0,Metros,Mar del Plata,7.0,N,PUBLICO,CONTROL,RACE,,Internacional,SI,SI,BUENOS AIRES
MER,Aeródromo,MERLO,"34°40'35""S  58°44'38""W",-58.74388889,-34.67638889,15.0,Metros,Merlo,2.0,SO,PRIVADO,NOCONTROL,RACE,,Nacional,NO,NO,BUENOS AIRES
MEZ,Aeródromo,CÓRDOBA/LA MEZQUITA,"31°24' 4""S  64°18' 1""W",-64.3003,-31.40103,510.0,Metros,La Mezquita,6.0,O,PRIVADO,NOCONTROL,RANO,CIVIL,Nacional,NO,NO,CÓRDOBA
MGI,Aeródromo,ISLA MARTÍN GARCIA,"34°10'56""S  58°14'49""W",-58.24694444,-34.18222222,2.0,Metros,Isla Martín Garcia,0.0,Lindando,PUBLICO,NOCONTROL,RACE,CIVIL,Nacional,NO,NO,BUENOS AIRES
MIN,Aeródromo,VILLA MINETTI,"28°37' 8""S  61°36'13""W",-61.60359,-28.61901,75.0,Metros,Villa Minetti,5.0,E,PRIVADO,NOCONTROL,RANO,,Nacional,NO,NO,SANTA FÉ
MJZ,Aeródromo,MARCOS JUAREZ,"32°41' 2""S  62° 9'28""W",-62.15772,-32.684,110.0,Metros,Marcos Juarez,5.0,O,PUBLICO,AERADIO,RANO,,Nacional,NO,NO,CÓRDOBA
MLA,Aeródromo,MALABRIGO,"29°22' 2""S  59°58'41""W",-59.97805556,-29.36722222,54.0,Metros,Malabrigo,1.5,S,PRIVADO,NOCONTROL,RANE,,Nacional,NO,NO,SANTA FÉ
MLD,Aeródromo,CORONEL MOLDES,"33°37' 3""S  64°37' 1""W",-64.61701,-33.61743,357.0,Metros,Coronel Moldes,1.5,NNO,PUBLICO,NOCONTROL,RANO,CIVIL,Nacional,NO,NO,CÓRDOBA
MLG,Aeródromo,MALARGÜE/COMODORO D. RICARDO SALOMÓN,"35°29'43""S  69°34'23""W",-69.57305556,-35.49527778,1424.0,Metros,Malargüe,1.0,S,PUBLICO,CONTROL,RANO,,Nacional,SI,SI,MENDOZA
MOI,Aeródromo,CORRALITO/DON MOISÉS,"32° 2' 8""S  64°11'28""W",-64.19111111,-32.03555556,489.0,Metros,Corralito,1.5,S,PRIVADO,NOCONTROL,RANO,AEROAPP,Nacional,NO,NO,CÓRDOBA
MON,Aeródromo,MONJE/FUMIGACIONES GONZALEZ,"32°21'32""S  60°58'47""W",-60.97972222,-32.35888889,30.0,Metros,Monje,3.0,O,PRIVADO,NOCONTROL,RACE,AEROAPP,Nacional,NO,NO,SANTA FÉ
MOR,Aeródromo,MORÓN,"34°40'45""S  58°38'37""W",-58.64361111,-34.67916667,29.0,Metros,Morón,3.0,SO,PUBLICO,CONTROL,RACE,,Nacional,NO,NO,BUENOS AIRES
MPH,Aeródromo,MAR DEL PLATA/PARQUE HERMOSO,"38° 1'42""S  57°38'23""W",-57.63972222,-38.02833333,35.0,Metros,Parque Hermoso,9.0,OSO,PRIVADO,NOCONTROL,RACE,CIVIL,Nacional,NO,NO,BUENOS AIRES
MPP,Aeródromo,MAR DEL PLATA/CLUB DE PLANEADORES,"38° 0'55""S  57°39'13""W",-57.65361111,-38.01527778,45.0,Metros,Mar del Plata,9.5,O,PUBLICO,NOCONTROL,RACE,,Nacional,NO,NO,BUENOS AIRES
MPU,Aeródromo,MAIPÚ,"36°53'20""S  57°51' 6""W",-57.85166667,-36.88888889,16.0,Metros,Maipú,3.0,SE,PUBLICO,NOCONTROL,RACE,,Nacional,NO,NO,BUENOS AIRES
MRD,Aeródromo,MERCEDES,"34°38'20""S  59°27'19""W",-59.45527778,-34.63888889,42.0,Metros,Mercedes,2.5,NO,PUBLICO,NOCONTROL,RACE,,Nacional,NO,NO,BUENOS AIRES
MSA,Aeródromo,VEINTICINCO DE MAYO/SERVICIOS AGROAÉREOS,"35°26'58""S  60° 9'39""W",-60.16088,-35.44932,50.0,Metros,25 de Mayo,2.0,SE,PRIVADO,NOCONTROL,RACE,AEROAPP,Nacional,NO,NO,BUENOS AIRES
MSP,Aeródromo,MARCOS PAZ,"34°47'51""S  58°53'49""W",-58.89693,-34.79759,28.0,Metros,Marcos Paz,6.5,E,PRIVADO,NOCONTROL,RACE,,Nacional,NO,NO,BUENOS AIRES
MSR,Aeródromo,MERCEDES/EA. SANTA ROMANA,"33°44'49""S  65°14'44""W",-65.24549,-33.74683,472.0,Metros,Villa Reynolds,13.0,E,PRIVADO,NOCONTROL,RANO,,Nacional,NO,NO,SAN LUIS
MTL,Aeródromo,MONTECARLO,"26°32'39""S  54°43'26""W",-54.72388889,-26.54416667,240.0,Metros,Montecarlo,3.5,NE,PRIVADO,NOCONTROL,RANE,,Nacional,NO,NO,MISIONES
MTN,Aeródromo,METAN,"25°30'51""S  64°57'56""W",-64.96555556,-25.51416667,843.0,Metros,Metán,2.0,NO,PRIVADO,NOCONTROL,RANO,,Nacional,NO,NO,SALTA
MTR,Aeródromo,MORTEROS,"30°40'33""S  62° 1'33""W",-62.0259,-30.67594,94.0,Metros,Morteros,3.0,NNO,PUBLICO,NOCONTROL,RANO,,Nacional,NO,NO,CÓRDOBA
MUQ,Aeródromo,QUEMÚ QUEMÚ,"36° 3'27""S  63°37'53""W",-63.63138889,-36.0575,0.0,Metros,Quemú Quemú,6.0,O,PUBLICO,NOCONTROL,RACE,,Nacional,NO,NO,LA PAMPA
MUS,Aeródromo,CHASCOMÚS,"35°32'32""S  58° 3' 7""W",-58.05194444,-35.54222222,10.0,Metros,Chascomús,5.0,NO,PUBLICO,NOCONTROL,RACE,CIVIL,Nacional,NO,NO,BUENOS AIRES
NAN,Aeródromo,HERNANDO/AEROCLUB,"32°20'25""S  63°41' 9""W",-63.68583333,-32.34027778,282.0,Metros,Hernando,1.0,NNE,PRIVADO,NOCONTROL,RANO,CIVIL,Nacional,NO,NO,CÓRDOBA
NDL,Aeródromo,TANDIL/AEROCLUB,"37°15'47""S  59° 5'37""W",-59.09361111,-37.26305556,165.0,Metros,Tandil,7.0,NNE,PUBLICO,NOCONTROL,RACE,,Nacional,NO,NO,BUENOS AIRES
NDR,Aeródromo,NORBERTO DE LA RIESTRA,"35°19'39""S  59°47'28""W",-59.7910805,-35.327583,38.5,Metros,Norberto de la Riestra,6.0,S,PRIVADO,NOCONTROL,RACE,AEROAPP,Nacional,NO,NO,BUENOS AIRES
NEC,Aeródromo,NECOCHEA,"38°29'22""S  58°48'59""W",-58.81626,-38.48954,22.0,Metros,Necochea,10.0,NE,PUBLICO,AERADIO,RACE,,Nacional,SI,NO,BUENOS AIRES
NEI,Aeródromo,NECOCHEA/IRIBERRI,"38°28'44""S  58°48'16""W",-58.80453,-38.47884,33.0,Metros,Necochea,10.0,NO,PRIVADO,NOCONTROL,RACE,AEROAPP,Nacional,NO,NO,BUENOS AIRES
NEU,Aeródromo,NEUQUÉN/PRESIDENTE PERÓN,"38°56'56""S  68° 9'21""W",-68.15583333,-38.94888889,273.0,Metros,Neuquén,8.0,ONO,PUBLICO,CONTROL,RACE,,Internacional,SI,SI,NEUQUÉN
NIK,Aeródromo,LOBERIA/NIKA,"38° 9'24""S  58°45'39""W",-58.76087,-38.15666,80.0,Metros,Lobería,2.0,E,PRIVADO,NOCONTROL,RACE,AEROAPP,Nacional,NO,NO,BUENOS AIRES
NIN,Aeródromo,JUNÍN,"34°32'45""S  60°55'50""W",-60.93051,-34.54589,80.0,Metros,Junín,6.5,NNE,PUBLICO,AERADIO,RACE,CIVIL,Nacional,SI,NO,BUENOS AIRES
NJB,Aeródromo,NOGOYÁ/JUAN CARLOS BAGUR,"32°25' 7""S  59°48'57""W",-59.81583333,-32.41861111,58.0,Metros,Nogoyá,4.0,SO,PRIVADO,NOCONTROL,RACE,,Nacional,NO,NO,ENTRE RÍOS
NOG,Aeródromo,NOGOYÁ,"32°23'58""S  59°45' 2""W",-59.75055556,-32.39944444,43.0,Metros,Nogoyá,5.0,E,PRIVADO,NOCONTROL,RACE,,Nacional,NO,NO,ENTRE RÍOS
NOT,Aeródromo,NOGOYÁ/TOGNOLI,"32°26'50""S  59°51'58""W",-59.86611,-32.44736,60.0,Metros,Nogoyá,9.5,SO,PRIVADO,NOCONTROL,RACE,AEROAPP,Nacional,NO,NO,ENTRE RÍOS
NPA,Aeródromo,NECOCHEA/PULVERIZACIONES AEROSUR,"38°34'31""S  58°47'42""W",-58.795,-38.57527778,15.0,Metros,Necochea,5.5,SO,PRIVADO,NOCONTROL,RACE,AEROAPP,Nacional,NO,NO,BUENOS AIRES
NST,Aeródromo,NUESTRA SEÑORA DE TALAVERA/FINCA TOLOCHE,"25°26'15""S  63°51'29""W",-63.85805556,-25.4375,317.0,Metros,Nuestra Señora de Talavera,8.0,NO,PRIVADO,NOCONTROL,RANO,AEROAPP,Nacional,NO,NO,SALTA
NVR,Aeródromo,NAVARRO,"35° 1'25""S  59°17' 9""W",-59.28583333,-35.02361111,30.0,Metros,Navarro,2.0,SO,PUBLICO,NOCONTROL,RACE,,Nacional,NO,NO,BUENOS AIRES
OBE,Aeródromo,OBERÁ,"27°31' 5""S  55° 7'27""W",-55.12421,-27.5181,343.0,Metros,Oberá,3.0,SE,PRIVADO,NOCONTROL,RANE,,Nacional,NO,NO,MISIONES
OCA,Aeródromo,MONTES DE OCA,"32°35' 3""S  61°50'30""W",-61.84167,-32.58417,19.0,Metros,Montes de Oca,9.0,OSO,PRIVADO,NOCONTROL,RACE,AEROAPP,Nacional,NO,NO,SANTA FÉ
OEL,Aeródromo,CHOELE CHOEL,"39°17'11""S  65°36'36""W",-65.61,-39.28638889,196.0,Metros,Choele Choel,3.5,E,PUBLICO,NOCONTROL,RACE,CIVIL,Nacional,NO,NO,RÍO NEGRO
OGB,Aeródromo,CORONEL BOGADO/AEROFUMIGACIONES DON ALEJANDRO,"33°18'22""S  60°39'22""W",-60.6561,-33.30609,52.0,Metros,Coronel Bogado,11.0,ONO,PRIVADO,NOCONTROL,RACE,AEROAPP,Nacional,NO,NO,SANTA FÉ
OLA,Aeródromo,OLAVARRÍA,"36°53'20""S  60°13'40""W",-60.22777778,-36.88888889,168.0,Metros,Olavarría,11.0,ENE,PUBLICO,AERADIO,RACE,,Nacional,NO,NO,BUENOS AIRES
OLV,Aeródromo,OLIVA,"32° 3'37""S  63°32'53""W",-63.54799,-32.06029,268.0,Metros,Oliva,2.0,SE,PUBLICO,NOCONTROL,RANO,,Nacional,NO,NO,CÓRDOBA
OMA,Aeródromo,LOMA LA LATA,"38°24'50""S  68°44'14""W",-68.73715,-38.41383,405.0,Metros,Neuquén,80.0,NO,PRIVADO,NOCONTROL,RACE,,Nacional,NO,NO,NEUQUÉN
ORA,Aeródromo,ORÁN,"23° 9' 8""S  64°19'44""W",-64.3288,-23.15221,357.0,Metros,San Ramón de la Nueva Orán,2.5,S,PUBLICO,AERADIO,RANO,,Nacional,NO,NO,SALTA
OSA,Aeródromo,SANTA ROSA,"36°35'18""S  64°16'33""W",-64.27583333,-36.58833333,192.0,Metros,Santa Rosa,4.5,NNE,PUBLICO,CONTROL,RACE,,Nacional,SI,SI,LA PAMPA
OVJ,Aeródromo,LAS OVEJAS,"36°59'57""S  70°44'32""W",-70.74222222,-36.99916667,1200.0,Metros,Las Ovejas,1.5,SE,PUBLICO,NOCONTROL,RACE,CIVIL,Nacional,NO,NO,NEUQUÉN
PAL,Aeródromo,EL PALOMAR,"34°36'36""S  58°36'45""W",-58.6125,-34.61,18.0,Metros,El Palomar,1.5,Lindando,PUBLICO,CONTROL,RACE,JOINT,Nacional,SI,NO,BUENOS AIRES
PAN,Aeródromo,PASCANAS/EL RECUERDO S.R.L.,"33° 6'20""S  63°11'35""W",-63.19298,-33.1055,138.0,Metros,Pascanas,14.0,ONO,PRIVADO,NOCONTROL,RANO,AEROAPP,Nacional,NO,NO,CÓRDOBA
PAR,Aeródromo,PARANÁ/GRAL. URQUIZA,"31°47'41""S  60°28'49""W",-60.48027778,-31.79472222,74.0,Metros,Paraná,7.5,SE,PUBLICO,CONTROL,RACE,,Nacional,SI,SI,ENTRE RÍOS
PAS,Aeródromo,PASTEUR/LAS LILAS,"35° 6'34""S  62°13' 4""W",-62.21764,-35.10957,107.0,Metros,Pasteur,2.0,NE,PRIVADO,NOCONTROL,RACE,,Nacional,NO,NO,BUENOS AIRES
PAT,Aeródromo,CARMEN DE PATAGONES,"40°46'41""S  62°58'49""W",-62.98027778,-40.77805556,40.0,Metros,Carmen de Patagones,1.5,N,PUBLICO,NOCONTROL,RASU,CIVIL,Nacional,NO,NO,BUENOS AIRES
PBE,Aeródromo,POBLET,"35° 5'17""S  57°56'57""W",-57.94917,-35.08795,20.0,Metros,Poblet,3.5,SE,PUBLICO,NOCONTROL,RACE,ULM,Nacional,NO,NO,BUENOS AIRES
PBO,Aeródromo,POSADAS/BONETTI,"27°36'24""S  55°51'54""W",-55.86498,-27.60678,141.0,Metros,Parada Leis,3.0,O,PRIVADO,NOCONTROL,RANE,,Nacional,NO,NO,MISIONES
PCA,Aeródromo,PIQUETE CABADO/SAS AEROAPLICACIONES,"24°48'24""S  64°10'52""W",-64.18111111,-24.80666667,457.0,Metros,Piquete Cabado,1.0,N,PRIVADO,NOCONTROL,RANO,AEROAPP,Nacional,NO,NO,SALTA
PDA,Aeródromo,JUJUY/PUERTA DE AVALOS,"24°18'53""S  65°14'50""W",-65.24727,-24.31467,1190.0,Metros,San Salvador de Jujuy,14.0,SSE,PUBLICO,NOCONTROL,RANO,CIVIL,Nacional,NO,NO,JUJUY
PDP,Aeródromo,PRESIDENCIA ROCA/EA. DON PANOS,"26°17'45""S  59°32' 7""W",-59.53539,-26.29586,80.0,Metros,Presidencia Roca,16.0,SSE,PRIVADO,AERADIO,RANE,,Nacional,NO,NO,CHACO
PED,Aeródromo,SAN PEDRO,"33°42'12""S  59°43'31""W",-59.72527778,-33.70333333,27.0,Metros,San Pedro,3.7,SO,PUBLICO,NOCONTROL,RACE,,Nacional,NO,NO,BUENOS AIRES
PEH,Aeródromo,PEHUAJÓ/COM. PEDRO ZANNI,"35°50'40""S  61°51'27""W",-61.85748,-35.84451,85.0,Metros,Pehuajó,5.0,SE,PUBLICO,NOCONTROL,RACE,,Nacional,NO,NO,BUENOS AIRES
PEL,Aeródromo,LA PELADA,"30°57'39""S  60°53'13""W",-60.88698,-30.96087,44.0,Metros,La Pelada,13.0,SE,PRIVADO,NOCONTROL,RACE,CIVIL,Nacional,NO,NO,SANTA FÉ
PEN,Aeródromo,PERGAMINO/LA NORIA,"33°51'25""S  60°42' 1""W",-60.70038,-33.85694,74.0,Metros,Pergamino,11.0,OSO,PRIVADO,NOCONTROL,RACE,AEROAPP,Nacional,NO,NO,BUENOS AIRES
PEP,Aeródromo,RICARDONE/PETTILEP II,"32°48'14""S  60°47'56""W",-60.79888889,-32.80388889,55.0,Metros,Ricardone,4.0,SSO,PRIVADO,NOCONTROL,RANO,AEROAPP,Nacional,NO,NO,SANTA FÉ
PER,Aeródromo,PERGAMINO,"33°55'13""S  60°38'53""W",-60.64805556,-33.92027778,72.0,Metros,Pergamino,10.0,SO,PUBLICO,NOCONTROL,RACE,,Nacional,NO,NO,BUENOS AIRES
PIG,Aeródromo,PIGÜÉ,"37°36'22""S  62°22'55""W",-62.38194444,-37.60611111,312.0,Metros,Pigüé,0.0,Lindando,PUBLICO,NOCONTROL,RACE,,Nacional,NO,NO,BUENOS AIRES
PJO,Aeródromo,PEHUAJÓ/LA MARIELA,"35°47'26""S  61°56'31""W",-61.94194444,-35.79055556,86.0,Metros,Pehuajó,4.5,NO,PRIVADO,NOCONTROL,RACE,,Nacional,NO,NO,BUENOS AIRES
PLC,Aeródromo,PIÑERO/EA. LA CAROLINA,"33° 4'32""S  60°42'54""W",-60.715,-33.07559,30.0,Metros,Piñero,8.0,NE,PRIVADO,NOCONTROL,RACE,CIVIL,Nacional,NO,NO,SANTA FÉ
PLG,Aeródromo,PELLEGRINI,"36°16'43""S  63° 8'49""W",-63.14695,-36.27873,113.0,Metros,Pellegrini,1.5,SE,PUBLICO,NOCONTROL,RACE,,Nacional,NO,NO,BUENOS AIRES
PLL,Aeródromo,PUJATO/LA LUCÍA,"33° 0'33""S  61° 3'46""W",-61.06286,-33.00928,73.0,Metros,Pujato,1.5,NO,PRIVADO,NOCONTROL,RACE,,Nacional,NO,NO,SANTA FÉ
PLS,Aeródromo,PIRANÉ/EA. LA SALVACIÓN,"25°16'52""S  58°56'16""W",-58.93781,-25.281,98.0,Metros,Pirané,52.0,NNE,PRIVADO,NOCONTROL,RANE,,Nacional,NO,NO,FORMOSA
PLT,Aeródromo,PUNTA ALTA,"38°50' 3""S  62° 5'14""W",-62.08722222,-38.83416667,3.0,Metros,Punta Alta,5.5,N,PUBLICO,NOCONTROL,RACE,,Nacional,NO,NO,BUENOS AIRES
PNA,Aeródromo,PARANÁ/CLUB DE PLANEADORES,"31°43'51""S  60°13'12""W",-60.22,-31.73083333,46.0,Metros,Paraná,29.0,E,PRIVADO,NOCONTROL,RACE,,Nacional,NO,NO,ENTRE RÍOS
PNR,Aeródromo,PINAMAR,"37° 5'47""S  56°58'27""W",-56.97416667,-37.09638889,9.0,Metros,Pinamar,10.0,OSO,PUBLICO,NOCONTROL,RACE,,Nacional,NO,NO,BUENOS AIRES
PNT,Aeródromo,GENERAL PINTO,"34°47' 9""S  61°54'51""W",-61.91415,-34.78595,97.0,Metros,General Pinto,4.0,SO,PUBLICO,NOCONTROL,RACE,CIVIL,Nacional,NO,NO,BUENOS AIRES
POS,Aeródromo,POSADAS/LIBERTADOR GRAL. D. JOSÉ DE SAN MARTÍN,"27°23' 9""S  55°58'14""W",-55.97049,-27.38573,131.0,Metros,Posadas,7.5,NO,PUBLICO,CONTROL,RANE,,Internacional,SI,SI,MISIONES
PRA,Aeródromo,PRESIDENTE ROCA/EA. LA LEONOR,"26° 8'16""S  59°39'50""W",-59.66378,-26.13774,87.0,Metros,Presidencia Roca,7.0,O,PRIVADO,NOCONTROL,RANE,,Nacional,NO,NO,CHACO
PRC,Aeródromo,HUNTER/FUMIGACIONES FREDY,"34°14'10""S  60°34'55""W",-60.58194444,-34.23611111,53.7,Metros,Hunter,5.0,ONO,PRIVADO,NOCONTROL,RACE,AEROAPP,Nacional,NO,NO,BUENOS AIRES
PRI,Aeródromo,CORONEL PRINGLES,"38° 0'24""S  61°19'55""W",-61.33194444,-38.00666667,247.0,Metros,Coronel Pringles,3.0,SE,PUBLICO,NOCONTROL,RACE,CIVIL,Nacional,NO,NO,BUENOS AIRES
PSA,Aeródromo,PIGÜÉ/SERVICIOS AERONÁUTICOS,"37°31'23""S  62°27' 8""W",-62.45231389,-37.52304444,247.0,Metros,Pigüé,9.0,NNO,PRIVADO,NOCONTROL,RACE,CIVIL,Nacional,NO,NO,BUENOS AIRES
PSP,Aeródromo,PRESIDENCIA ROQUE SAENZ PEÑA/TERMAL,"26°45'20""S  60°29'36""W",-60.49329,-26.75564,94.0,Metros,Presidencia Roque Saenz Peña,6.0,NNO,PUBLICO,AERADIO,RANE,,Nacional,NO,NO,CHACO
PST,Aeródromo,PUERTO SAN MARTÍN/TERMINAL 6,"32°38'30""S  60°45'12""W",-60.7534,-32.64155,0.0,Metros,Puerto General San Martín,7.0,N,PRIVADO,NOCONTROL,RACE,,Nacional,NO,NO,SANTA FÉ
PSV,Aeródromo,PRESIDENCIA ROQUE SAENZ PEÑA/ROVERE,"26°46'59""S  60°29'15""W",-60.48741,-26.78309,0.0,Metros,Presidencia Roque Saenz Peña,5.2,O,PRIVADO,NOCONTROL,RANE,,Nacional,NO,NO,CHACO
PTA,Aeródromo,LA PLATA,"34°58' 9""S  57°53'35""W",-57.89305556,-34.96916667,22.0,Metros,La Plata,5.0,SE,PUBLICO,AERADIO,RACE,CIVIL,Nacional,SI,NO,BUENOS AIRES
PTL,Aeródromo,LA PLATA/TOLOSA,"34°52'28""S  57°57'41""W",-57.96138889,-34.87444444,6.0,Metros,La Plata,5.0,N,PUBLICO,NOCONTROL,RACE,CIVIL,Nacional,NO,NO,BUENOS AIRES
PTM,Aeródromo,PERITO MORENO,"46°32'18""S  70°58'44""W",-70.97879,-46.53844,430.0,Metros,Perito Moreno,8.0,NO,PUBLICO,AERADIO,RASU,,Nacional,NO,NO,SANTA CRUZ
PUA,Aeródromo,PUAN,"37°32'22""S  62°44' 4""W",-62.73444444,-37.53944444,240.0,Metros,Puan,3.0,N,PUBLICO,NOCONTROL,RACE,,Nacional,NO,NO,BUENOS AIRES
PUP,Aeródromo,PUJATO/PETTILEP,"33° 0'28""S  61° 1' 4""W",-61.01765,-33.0077,61.0,Metros,Pujato,3.0,E,PRIVADO,NOCONTROL,RACE,AEROAPP,Nacional,NO,NO,SANTA FÉ
RAE,Aeródromo,RIVADAVIA/AEROTEC,"33°12'24""S  68°29'33""W",-68.49242,-33.2068,665.0,Metros,Rivadavia,3.0,SO,PRIVADO,NOCONTROL,RANO,,Nacional,NO,NO,MENDOZA
RAI,Aeródromo,RANCHOS/LA IGUALDAD,"35°34' 7""S  58°26'25""W",-58.44027778,-35.56861111,18.0,Metros,Ranchos,10.0,SO,PRIVADO,NOCONTROL,RACE,,Nacional,NO,NO,BUENOS AIRES
RAU,Aeródromo,RAUCH,"36°46'19""S  59° 3'28""W",-59.05772,-36.7719,94.0,Metros,Rauch,2.0,NE,PUBLICO,NOCONTROL,RACE,,Nacional,NO,NO,BUENOS AIRES
RAW,Aeródromo,RAWSON,"43°17'38""S  65° 3'47""W",-65.06319021,-43.29391627,11.0,Metros,Rawson,2.0,E,PUBLICO,NOCONTROL,RASU,,Nacional,NO,NO,CHUBUT
RBS,Aeródromo,RUFINO/BSG,"34°14'57""S  62°40'27""W",-62.67405,-34.24928,120.0,Metros,Rufino,3.4,NE,PRIVADO,NOCONTROL,RACE,AEROAPP,Nacional,NO,NO,SANTA FÉ
RCE,Aeródromo,MERCEDES,"29°13'20""S  58° 5'17""W",-58.08805556,-29.22222222,106.0,Metros,Mercedes,4.0,S,PUBLICO,NOCONTROL,RANE,CIVIL,Nacional,NO,NO,CORRIENTES
RCR,Aeródromo,RÍO TERCERO,"32°10'22""S  64° 5'18""W",-64.08833333,-32.17277778,380.0,Metros,Río Tercero,1.5,E,PUBLICO,NOCONTROL,RANO,,Nacional,NO,NO,CÓRDOBA
RCV,Aeródromo,RÍO COLORADO/VALE,"37° 3'56""S  69°23'44""W",-69.39555556,-37.06555556,930.0,Metros,Rincón de los Sauces,56.0,NO,PRIVADO,NOCONTROL,RANO,CIVIL,Nacional,NO,NO,MENDOZA
RDJ,Aeródromo,RICARDONE/DON JOSÉ,"32°49'40""S  60°46'54""W",-60.78168,-32.82771,25.0,Metros,Ricardone,8.0,NE,PRIVADO,NOCONTROL,RACE,,Nacional,NO,NO,SANTA FÉ
RES,Aeródromo,RESISTENCIA/AEROCLUB,"27°37'52""S  59°10'47""W",-59.17972222,-27.63111111,50.0,Metros,Resistencia,30.0,SSE,PUBLICO,AERADIO,RANE,,Nacional,NO,NO,CHACO
RGR,Aeródromo,RÍO GALLEGOS/RÍO CHICO,"51°40' 7""S  69°15'37""W",-69.26027778,-51.66861111,21.0,Metros,Río Chico,5.0,SO,PRIVADO,NOCONTROL,RASU,,Nacional,NO,NO,SANTA CRUZ
RIE,Aeródromo,RÍO CUARTO/ESTINDHER,"33° 5'34""S  64°25'45""W",-64.42926,-33.09288,0.0,Metros,Río Cuarto,9.0,NO,PRIVADO,NOCONTROL,RANO,,Nacional,NO,NO,CÓRDOBA
RIN,Aeródromo,RINCÓN DE LOS SAUCES,"37°23'25""S  68°54'16""W",-68.90444444,-37.39027778,600.0,Metros,Rincón de los Sauces,0.0,N,PRIVADO,NOCONTROL,RACE,,Nacional,NO,NO,NEUQUÉN
RJA,Aeródromo,ROJAS,"34°12'55""S  60°40'24""W",-60.67325,-34.21534,6.0,Metros,Rojas,6.0,SE,PUBLICO,NOCONTROL,RACE,,Nacional,NO,NO,BUENOS AIRES
RLA,Aeródromo,RAFAELA,"31°16'57""S  61°30' 6""W",-61.50166667,-31.2825,99.0,Metros,Rafaela,3.5,S,PUBLICO,NOCONTROL,RANO,,Nacional,NO,NO,SANTA FÉ
RLC,Aeródromo,REALICÓ,"35° 3'32""S  64°12'46""W",-64.21277,-35.05892,165.0,Metros,Realicó,6.0,ESE,PUBLICO,NOCONTROL,RACE,,Nacional,NO,NO,LA PAMPA
RMY,Aeródromo,RÍO MAYO,"45°42'14""S  70°14'40""W",-70.24444444,-45.70388889,544.0,Metros,Río Mayo,3.0,S,PUBLICO,AERADIO,RASU,,Nacional,NO,NO,CHUBUT
ROB,Aeródromo,ROBERTS/AGROAÉREO,"35° 8' 9""S  61°59'50""W",-61.99718,-35.13588,99.0,Metros,Roberts,3.0,ONO,PRIVADO,NOCONTROL,RACE,AEROAPP,Nacional,NO,NO,BUENOS AIRES
ROH,Aeródromo,ROBERTS/FUMIGACIONES HERBINSEC,"35° 8'11""S  61°59'25""W",-61.99028,-35.13652,102.0,Metros,Roberts,1.8,NO,PRIVADO,NOCONTROL,RACE,AEROAPP,Nacional,NO,NO,BUENOS AIRES
ROP,Aeródromo,ROSARIO/PUEBLO ESTHER,"33° 4'54""S  60°33'53""W",-60.56472222,-33.08166667,25.0,Metros,Pueblo Esther,1.0,SE,PUBLICO,NOCONTROL,RACE,,Nacional,NO,NO,SANTA FÉ
ROS,Aeródromo,ROSARIO/ISLAS MALVINAS,"32°54'13""S  60°47' 4""W",-60.78444444,-32.90361111,26.0,Metros,Rosario,13.0,ONO,PUBLICO,CONTROL,RACE,,Internacional,SI,NO,SANTA FÉ
ROT,Aeródromo,ROSARIO DEL TALA,"32°19'46""S  59°11'29""W",-59.19146,-32.32954,54.0,Metros,Rosario del Tala,4.0,SO,PRIVADO,NOCONTROL,RACE,,Nacional,NO,NO,ENTRE RÍOS
RST,Aeródromo,CAÑADA ROSQUIN/STIEFEL,"31°59'41""S  61°36'10""W",-61.60277778,-31.99472222,71.0,Metros,Cañada Rosquín,6.5,N,PRIVADO,NOCONTROL,RANO,AEROAPP,Nacional,NO,NO,SANTA FÉ
RTA,Aeródromo,RECONQUISTA,"29°12'37""S  59°40'48""W",-59.68,-29.21027778,49.0,Metros,Reconquista,7.0,S,PUBLICO,CONTROL,RANE,,Nacional,SI,SI,SANTA FÉ
RUF,Aeródromo,RUFINO,"34°16'58""S  62°40' 3""W",-62.6675,-34.28277778,114.0,Metros,Rufino,5.0,ESE,PUBLICO,NOCONTROL,RACE,,Nacional,NO,NO,SANTA FÉ
RVA,Aeródromo,AMÉRICA,"35°30' 7""S  62°59'24""W",-62.99,-35.50194444,106.0,Metros,América,1.0,SO,PUBLICO,NOCONTROL,RACE,CIVIL,Nacional,NO,NO,BUENOS AIRES
RVD,Aeródromo,RIVADAVIA,"33°13'42""S  68°28'27""W",-68.47406,-33.22834,659.0,Metros,Rivadavia,3.0,S,PUBLICO,NOCONTROL,RANO,,Nacional,NO,NO,MENDOZA
RYD,Aeródromo,VILLA REYNOLDS,"33°43'54""S  65°22'33""W",-65.37579,-33.73178,485.0,Metros,Villa Mercedes,9.0,SE,PUBLICO,CONTROL,RANO,,Nacional,SI,SI,SAN LUIS
SAB,Aeródromo,SALADILLO/ABELENDA,"35°44'19""S  59°45'43""W",-59.76197,-35.73851,39.0,Metros,Saladillo,9.0,SSE,PRIVADO,NOCONTROL,RACE,AEROAPP,Nacional,NO,NO,BUENOS AIRES
SAF,Aeródromo,SAFORCADA/PARAJON,"34°34'35""S  61° 0'20""W",-61.00568,-34.57637,84.0,Metros,Saforcada,6.0,E,PRIVADO,NOCONTROL,RACE,AEROAPP,Nacional,NO,NO,BUENOS AIRES
SAL,Aeródromo,SALTA/GENERAL D. MARTÍN MIGUEL DE GÜEMES,"24°51'35""S  65°29'13""W",-65.48694444,-24.85972222,1246.0,Metros,Salta,6.0,SO,PUBLICO,CONTROL,RANO,,Internacional,SI,SI,SALTA
SAN,Aeródromo,SAN ANTONIO OESTE/ANTOINE DE SAINT EXUPERY,"40°45' 2""S  65° 2' 7""W",-65.03527778,-40.75055556,26.0,Metros,San Antonio Oeste,10.0,SO,PUBLICO,AERADIO,RASU,,Nacional,NO,NO,RÍO NEGRO
SBE,Aeródromo,SAN BENITO,"31°48'31""S  60°27' 6""W",-60.45166667,-31.80861111,59.0,Metros,San Benito,2.8,SSO,PRIVADO,NOCONTROL,RACE,AEROAPP,Nacional,NO,NO,ENTRE RÍOS
SCA,Aeródromo,SUNCHALES/AEROCLUB,"30°57'26""S  61°31'44""W",-61.52888889,-30.95722222,91.0,Metros,Sunchales,2.0,ESE,PUBLICO,NOCONTROL,RANO,,Nacional,NO,NO,SANTA FÉ
SCF,Aeródromo,SANFORD/CASILDA FUMIGACIONES,"33°10'34""S  61°12'10""W",-61.20267,-33.17625,79.0,Metros,Casilda,9.0,SE,PRIVADO,NOCONTROL,RACE,AEROAPP,Nacional,NO,NO,SANTA FÉ
SCL,Aeródromo,SANTA CLARA DE SAGUIER,"31°21'20""S  61°49'47""W",-61.82983,-31.35548,105.0,Metros,Santa Clara de Saguier,2.5,SSO,PRIVADO,NOCONTROL,RANO,CIVIL,Nacional,NO,NO,SANTA FÉ
SCT,Aeródromo,SAN CRISTÓBAL,"30°15'51""S  61°13'12""W",-61.22,-30.26416667,74.0,Metros,San Cristóbal,4.0,NNE,PRIVADO,NOCONTROL,RANO,,Nacional,NO,NO,SANTA FÉ
SCZ,Aeródromo,SANTA CRUZ,"50° 1' 4""S  68°34'49""W",-68.58027778,-50.01777778,111.0,Metros,Puerto Santa Cruz,5.0,O,PUBLICO,AERADIO,RASU,,Nacional,NO,NO,SANTA CRUZ
SDE,Aeródromo,SANTIAGO DEL ESTERO/VCOM. ANGEL DE LA PAZ ARAGONÉS,"27°45'56""S  64°18'36""W",-64.31,-27.76555556,200.0,Metros,Santiago del Estero,6.0,NNO,PUBLICO,CONTROL,RANO,,Nacional,SI,SI,SANTIAGO DEL ESTERO
SDL,Aeródromo,SALADILLO,"35°36'16""S  59°49' 0""W",-59.81676,-35.60439,45.0,Metros,Saladillo,4.0,NE,PUBLICO,NOCONTROL,RACE,,Nacional,NO,NO,BUENOS AIRES
SEN,Aeródromo,CORONEL BRANDSEN,"35°10'54""S  58°17'43""W",-58.29517,-35.18174,16.0,Metros,Coronel Brandsen,5.0,O,PRIVADO,NOCONTROL,RACE,CIVIL,Nacional,NO,NO,BUENOS AIRES
SER,Aeródromo,SERODINO/FUMIGACIONES STANDLER,"32°34'47""S  60°54'34""W",-60.90944,-32.57978,37.0,Metros,Serodino,5.0,NE,PRIVADO,NOCONTROL,RACE,AEROAPP,Nacional,NO,NO,SANTA FÉ
SEZ,Aeródromo,GENERAL PINTO/ALFREDO SANCHEZ,"34°48' 5""S  61°52'10""W",-61.86958,-34.80139,100.0,Metros,General Pinto,6.0,SE,PRIVADO,NOCONTROL,RACE,AEROAPP,Nacional,NO,NO,BUENOS AIRES
SFN,Aeródromo,SELVA NUEVA/FUMIGACIONES NANDO S.H.,"29°46'45""S  62° 1'52""W",-62.03107,-29.77908,86.0,Metros,Selva,2.0,SE,PRIVADO,NOCONTROL,RANO,AEROAPP,Nacional,NO,NO,SANTIAGO DEL ESTERO
SGE,Aeródromo,SAN GREGORIO,"34°19' 1""S  62° 1' 9""W",-62.01916667,-34.31694444,106.0,Metros,San Gregorio,2.0,NE,PRIVADO,NOCONTROL,RACE,,Nacional,NO,NO,SANTA FÉ
SGI,Aeródromo,TRES ARROYOS/SANTAGIULIAN,"38°24'30""S  60°18' 4""W",-60.30111111,-38.40833333,104.0,Metros,Tres Arroyos,1.5,SSO,PRIVADO,NOCONTROL,RACE,AEROAPP,Nacional,NO,NO,BUENOS AIRES
SGR,Aeródromo,SIERRA GRANDE,"41°35'29""S  65°20'24""W",-65.33991,-41.59138,210.0,Metros,Sierra Grande,2.5,NE,PUBLICO,AERADIO,RASU,,Nacional,NO,NO,RÍO NEGRO
SGV,Aeródromo,SAN GUILLERMO/VERGNANO,"30°19' 0""S  61°54' 3""W",-61.90083333,-30.31666667,96.0,Metros,San Guillermo,5.0,NNE,PRIVADO,NOCONTROL,RANO,AEROAPP,Nacional,NO,NO,SANTA FÉ
SHP,Aeródromo,SAN ANTONIO DE ARECO/HARAS LA POMME,"34°12'40""S  59°23'30""W",-59.39154,-34.21122,28.0,Metros,San Antonio de Areco,6.5,NE,PRIVADO,NOCONTROL,RACE,,Nacional,NO,NO,BUENOS AIRES
SIS,Aeródromo,RESISTENCIA,"27°26'60""S  59° 3'22""W",-59.05611111,-27.45,53.0,Metros,Resistencia,5.0,SO,PUBLICO,CONTROL,RANE,,Internacional,SI,SI,CHACO
SJA,Aeródromo,SAN JUAN/AEROCLUB,"31°36'11""S  68°32'50""W",-68.54722222,-31.60305556,634.0,Metros,San Juan,7.0,S,PUBLICO,NOCONTROL,RANO,CIVIL,Nacional,NO,NO,SAN JUAN
SJB,Aeródromo,SAN JORGE/BOCCA,"31°52'16""S  61°57' 4""W",-61.95111111,-31.87111111,105.0,Metros,San Jorge,9.0,ONO,PRIVADO,NOCONTROL,RANO,AEROAPP,Nacional,NO,NO,SANTA FÉ
SJD,Aeródromo,SAN JOSÉ DE LA DORMIDA,"30°16'27""S  63°51'27""W",-63.85751,-30.27423,423.0,Metros,San José de la Dormida,11.0,NE,PRIVADO,NOCONTROL,RANO,AEROAPP,Nacional,NO,NO,CÓRDOBA
SJR,Aeródromo,SAN JAVIER/AEROCLUB,"30°33'21""S  59°59'26""W",-59.99069,-30.55586,23.0,Metros,San Javier,6.5,ONO,PRIVADO,NOCONTROL,RACE,CIVIL,Nacional,NO,NO,SANTA FÉ
SJT,Aeródromo,SAN JUSTO,"30°45'58""S  60°34' 2""W",-60.56722222,-30.76611111,55.0,Metros,San Justo,1.5,NE,PRIVADO,NOCONTROL,RACE,,Nacional,NO,NO,SANTA FÉ
SJU,Aeródromo,SAN JULIÁN/CAPITÁN D. DANIEL VAZQUEZ,"49°18'24""S  67°48'10""W",-67.80282,-49.30671,62.0,Metros,Puerto San Julián,7.0,O,PUBLICO,AERADIO,RASU,,Nacional,NO,NO,SANTA CRUZ
SLG,Aeródromo,SALDUNGARAY,"38°12'19""S  61°45'40""W",-61.76115,-38.20517,228.0,Metros,Saldungaray,4.0,E,PRIVADO,NOCONTROL,RACE,,Nacional,NO,NO,BUENOS AIRES
SLO,Aeródromo,SALLIQUELÓ,"36°45'24""S  62°56'39""W",-62.94407,-36.75659,127.0,Metros,Salliqueló,1.4,SE,PUBLICO,NOCONTROL,RACE,,Nacional,NO,NO,BUENOS AIRES
SLP,Aeródromo,SANTA ROSA/SAN ALBERTO,"36°35'31""S  64°13'13""W",-64.22041,-36.59206,186.0,Metros,Santa Rosa,9.3,NE,PRIVADO,NOCONTROL,RACE,AEROAPP,Nacional,NO,NO,LA PAMPA
SLT,Aeródromo,SALTO,"34°18'23""S  60°17'12""W",-60.28678,-34.3065,59.0,Metros,Salto,3.0,O,PUBLICO,NOCONTROL,RACE,,Nacional,NO,NO,BUENOS AIRES
SLV,Aeródromo,EMBARCACIÓN/SALVITA,"23°12'47""S  64° 2' 3""W",-64.03403,-23.21306,283.0,Metros,Embarcación,6.0,E,PRIVADO,NOCONTROL,RANO,AEROAPP,Nacional,NO,NO,SALTA
SLY,Aeródromo,SALDUNGARAY/SANTO TOMÁS DE LA SIERRA,"38°14'30""S  61°49'40""W",-61.82767,-38.24173,273.0,Metros,Saldungaray,5.0,SSO,PRIVADO,NOCONTROL,RACE,,Nacional,NO,NO,BUENOS AIRES
SLZ,Aeródromo,SALAZAR/EA. EL TRIÁNGULO,"36°21' 1""S  62°13'37""W",-62.22694444,-36.35027778,104.0,Metros,Salazar,5.0,SSO,PRIVADO,NOCONTROL,RACE,AEROAPP,Nacional,NO,NO,BUENOS AIRES
SMC,Aeródromo,SANTA MARÍA,"26°40'26""S  66° 1'29""W",-66.02481,-26.67385,1800.0,Metros,Santa María,2.0,ENE,PRIVADO,NOCONTROL,RANO,,Nacional,NO,NO,CATAMARCA
SMF,Aeródromo,SAN MARTÍN/FINCA LA FRONTERA,"22° 7'25""S  63°17'26""W",-63.29064,-22.12362,49.0,Metros,Aguaray,49.0,NE,PRIVADO,NOCONTROL,RANO,,Nacional,NO,NO,SALTA
SMM,Aeródromo,SAN MIGUEL DEL MONTE/BAHÍA AGRADABLE,"35°27'34""S  58°45'50""W",-58.76388889,-35.45944444,24.0,Metros,San Miguel del Monte,4.0,SE,PUBLICO,NOCONTROL,RACE,,Nacional,NO,NO,BUENOS AIRES
SMS,Aeródromo,SAN MARCOS/CHIALVA S.H.,"32°44'12""S  62°31'52""W",-62.53111111,-32.73666667,115.0,Metros,Bell Ville,19.0,SE,PRIVADO,NOCONTROL,RANO,AEROAPP,Nacional,NO,NO,CÓRDOBA
SMT,Aeródromo,GENERAL SAN MARTÍN,"37°57'34""S  63°35'28""W",-63.59111,-37.95934,161.0,Metros,General San Martín,1.5,N,PRIVADO,NOCONTROL,RACE,CIVIL,Nacional,NO,NO,LA PAMPA
SNT,Aeródromo,SAN ANTONIO DE ARECO,"34°13'11""S  59°26'21""W",-59.43911,-34.2198,30.0,Metros,San Antonio de Areco,3.0,NE,PUBLICO,NOCONTROL,RACE,,Nacional,NO,NO,BUENOS AIRES
SNY,Aeródromo,SAN NICOLÁS DE LOS ARROYOS,"33°23'27""S  60°11'44""W",-60.19555556,-33.39083333,30.0,Metros,San Nicolás de los Arroyos,6.0,SSE,PUBLICO,NOCONTROL,RACE,,Nacional,NO,NO,BUENOS AIRES
SQI,Aeródromo,CAÑADA ROSQUIN,"32° 6'20""S  61°36'49""W",-61.61348,-32.10557,67.0,Metros,Cañada Rosquín,5.0,S,PRIVADO,NOCONTROL,RACE,CIVIL,Nacional,NO,NO,SANTA FÉ
SRA,Aeródromo,SAN RAFAEL/S.A. SANTIAGO GERMANO,"34°35'16""S  68°24'13""W",-68.40358889,-34.58781667,753.0,Metros,San Rafael,8.0,O,PUBLICO,CONTROL,RANO,,Nacional,SI,SI,MENDOZA
SRC,Aeródromo,SANTA ROSA DE CONLARA/VALLE DEL CONLARA,"32°23' 5""S  65°11' 9""W",-65.18583333,-32.38472222,616.0,Metros,Santa Rosa del Conlara,4.5,SSE,PUBLICO,CONTROL,RANO,,Nacional,NO,NO,SAN LUIS
SRE,Aeródromo,SANTA REGINA/FORTÍN DE GAINZA,"34°32'48""S  63° 7'28""W",-63.12451,-34.54661,130.0,Metros,Santa Regina,3.0,E,PRIVADO,NOCONTROL,RACE,,Nacional,NO,NO,BUENOS AIRES
SRM,Aeródromo,SARMIENTO,"45°34'59""S  69° 0' 4""W",-69.00111111,-45.58305556,270.0,Metros,Sarmiento,3.0,E,PRIVADO,NOCONTROL,RASU,,Nacional,NO,NO,CHUBUT
SSK,Aeródromo,SALTO/SKARE,"34°21'25""S  60° 9'21""W",-60.15597,-34.35684,60.0,Metros,Est. Gahan,4.0,O,PUBLICO,NOCONTROL,RACE,,Nacional,NO,NO,BUENOS AIRES
SSR,Aeródromo,SALADILLO/SANTA RITA,"35°49'42""S  60° 8'48""W",-60.14666667,-35.82833333,54.0,Metros,Saladillo,38.0,SO,PRIVADO,NOCONTROL,RACE,,Nacional,NO,NO,BUENOS AIRES
STD,Aeródromo,STROEDER,"40°12'37""S  62°37' 3""W",-62.61747,-40.21038,28.0,Metros,Stroeder,1.5,S,PUBLICO,NOCONTROL,RASU,,Nacional,NO,NO,BUENOS AIRES
STI,Aeródromo,SAN MARTÍN,"33° 3'44""S  68°30'34""W",-68.50944444,-33.06222222,696.0,Metros,San Martín,3.0,NE,PUBLICO,NOCONTROL,RANO,,Nacional,NO,NO,MENDOZA
STR,Aeródromo,SANTA TERESITA,"36°32'32""S  56°43'17""W",-56.72138889,-36.54222222,3.0,Metros,Santa Teresita,2.0,O,PUBLICO,AERADIO,RACE,,Nacional,SI,NO,BUENOS AIRES
SUZ,Aeródromo,CORONEL SUÁREZ/BRIG. D. H. E.  RUIZ,"37°26'46""S  61°53'22""W",-61.88934,-37.44609,234.0,Metros,Coronel Suárez,3.0,ENE,PUBLICO,NOCONTROL,RACE,CIVIL,Nacional,NO,NO,BUENOS AIRES
SVO,Aeródromo,SANTA FÉ/SAUCE VIEJO,"31°42'39""S  60°48'41""W",-60.81138889,-31.71083333,17.0,Metros,Santa Fé,10.0,SSO,PUBLICO,CONTROL,RACE,,Nacional,SI,NO,SANTA FÉ
TAR,Aeródromo,TARTAGAL/GENERAL ENRIQUE MOSCONI,"22°37' 6""S  63°47'35""W",-63.79305556,-22.61833333,449.0,Metros,Tartagal,11.0,S,PUBLICO,NOCONTROL,RANO,,Nacional,SI,NO,SALTA
TBL,Aeródromo,EL TRÉBOL/BURDISSO,"32°14'38""S  61°45'33""W",-61.75915,-32.24383,111.0,Metros,El Trebol,7.0,SO,PRIVADO,NOCONTROL,RACE,AEROAPP,Nacional,NO,NO,SANTA FÉ
TCM,Aeródromo,TUCUMÁN/AEROCLUB HORCO MOLLE,"26°47'46""S  65°18'34""W",-65.30937,-26.79606,580.0,Metros,San Miguel de Tucumán,8.0,O,PUBLICO,NOCONTROL,RANO,,Nacional,NO,NO,TUCUMÁN
TDB,Aeródromo,EL TREBOL/DE BERNARDO,"32°15' 2""S  61°39' 6""W",-61.65166667,-32.25055556,87.0,Metros,El Trébol,7.0,SE,PRIVADO,NOCONTROL,RACE,AEROAPP,Nacional,NO,NO,SANTA FÉ
TEC,Aeródromo,ESTANCIA TECKA,"43°36'44""S  71° 1'19""W",-71.02194444,-43.61222222,720.0,Metros,Estancia Tecka,2.8,O,PRIVADO,NOCONTROL,RASU,CIVIL,Nacional,NO,NO,CHUBUT
TEJ,Aeródromo,CARLOS TEJEDOR,"35°25'31""S  62°28'10""W",-62.46944444,-35.42527778,94.0,Metros,Carlos Tejedor,5.0,SO,PUBLICO,NOCONTROL,RACE,CIVIL,Nacional,NO,NO,BUENOS AIRES
TEO,Aeródromo,TEODELINA/F.A.T.,"34°10'36""S  61°30'25""W",-61.50694444,-34.17666667,87.0,Metros,Teodelina,1.0,E,PRIVADO,NOCONTROL,RACE,AEROAPP,Nacional,NO,NO,SANTA FÉ
TEV,Aeródromo,TINTINA/ESTABLECIMIENTO EL 21,"26°53'43""S  62°18'35""W",-62.30972222,-26.89527778,68.0,Metros,Tintina,41.0,ENE,PRIVADO,NOCONTROL,RANO,CIVIL,Nacional,NO,NO,SANTIAGO DEL ESTERO
THN,Aeródromo,TOLHUIN,"54°29'59""S  67°10'20""W",-67.17226,-54.49961,213.0,Metros,Tolhuin,1.5,NE,PRIVADO,NOCONTROL,RASU,CIVIL,Nacional,NO,NO,TIERRA DEL FUEGO ANTÁRTIDA E ISLAS DEL ATLÁNTICO SUR
TIN,Aeródromo,TINOGASTA,"28° 2'27""S  67°34'39""W",-67.57759,-28.04089,1210.0,Metros,Tinogasta,1.0,NO,PRIVADO,NOCONTROL,RANO,,Nacional,NO,NO,CATAMARCA
TIO,Aeródromo,TÍO PUJIO,"32°17'35""S  63°24' 7""W",-63.40194444,-32.29305556,237.0,Metros,Tío Pújio,9.0,O,PRIVADO,NOCONTROL,RANO,AEROAPP,Nacional,NO,NO,CÓRDOBA
TIR,Aeródromo,COLONIA TIROLESA,"31°14'53""S  64° 2'18""W",-64.03847,-31.24797,407.0,Metros,Colonia Tirolesa,3.0,SE,PRIVADO,NOCONTROL,RANO,CIVIL,Nacional,NO,NO,CÓRDOBA
TLS,Aeródromo,TILISARAO,"32°45' 8""S  65°16'54""W",-65.28158,-32.75226,751.0,Metros,Tilisarao,2.5,E,PUBLICO,NOCONTROL,RANO,,Nacional,NO,NO,SAN LUIS
TOR,Aeródromo,TORNQUIST,"38° 5'42""S  62°14'58""W",-62.24944444,-38.095,285.0,Metros,Tornquist,2.0,O,PRIVADO,NOCONTROL,RACE,,Nacional,NO,NO,BUENOS AIRES
TOS,Aeródromo,TOSTADO,"29°14' 8""S  61°47'18""W",-61.78845,-29.23552,69.0,Metros,Tostado,1.0,OSO,PUBLICO,NOCONTROL,RANO,,Nacional,NO,NO,SANTA FÉ
TOT,Aeródromo,ALTA GRACIA /EL TOTO,"31°39' 1""S  64°22' 8""W",-64.36888889,-31.65027778,540.0,Metros,Alta Gracia,5.0,E,PRIVADO,NOCONTROL,RANO,CIVIL,Nacional,NO,NO,CÓRDOBA
TQL,Aeródromo,TRENQUE LAUQUEN/ÑANCO LAUQUEN,"35°58'13""S  62°46'19""W",-62.77194444,-35.97027778,92.0,Metros,Trenque Lauquen,3.5,O,PUBLICO,NOCONTROL,RACE,,Nacional,NO,NO,BUENOS AIRES
TRC,Aeródromo,RÍO CUARTO/ÁREA DE MATERIAL,"33° 5'32""S  64°16'10""W",-64.26934,-33.09216,421.0,Metros,Río Cuarto,8.0,NE,PUBLICO,CONTROL,RANO,,Nacional,SI,SI,CÓRDOBA
TRE,Aeródromo,TRELEW/ALMIRANTE ZAR,"43°12'38""S  65°16'13""W",-65.27027778,-43.21055556,43.0,Metros,Trelew,6.5,NNE,PUBLICO,CONTROL,RASU,,Internacional,SI,SI,CHUBUT
TRH,Aeródromo,TERMAS DE RÍO HONDO,"27°29'48""S  64°56' 9""W",-64.93596,-27.49662,280.5,Metros,Termas de Río Hondo,7.5,O,PUBLICO,CONTROL,RANO,CIVIL,Nacional,SI,SI,SANTIAGO DEL ESTERO
TRW,Aeródromo,TRELEW/AEROCLUB,"43°14' 8""S  65°19'27""W",-65.32414,-43.23564,39.0,Metros,Trelew,2.5,NNO,PUBLICO,NOCONTROL,RASU,,Nacional,NO,NO,CHUBUT
TSV,Aeródromo,TORTUGAS/EA. SAN VICENTE,"32°59'56""S  61°46'41""W",-61.77805556,-32.99888889,70.0,Metros,Tortugas,28.0,SSE,PRIVADO,NOCONTROL,RACE,,Nacional,NO,NO,SANTA FÉ
TUC,Aeródromo,TUCUMÁN/TENIENTE BENJAMIN MATIENZO,"26°50'27""S  65° 6'17""W",-65.10472222,-26.84083333,455.0,Metros,San Miguel de Tucumán,12.0,E,PUBLICO,CONTROL,RANO,,Internacional,SI,SI,TUCUMÁN
TVN,Aeródromo,TREVELIN,"43° 5'15""S  71°28'41""W",-71.47808,-43.08742,397.0,Metros,Trevelin,2.0,OSO,PRIVADO,NOCONTROL,RASU,,Nacional,NO,NO,CHUBUT
TXO,Aeródromo,EL TRAPIAL/CHEVRON TEXACO,"37°21'54""S  69°18' 7""W",-69.30194444,-37.365,883.0,Metros,Rincón de los Sauces,20.0,O,PRIVADO,NOCONTROL,RACE,CIVIL,Nacional,NO,NO,NEUQUÉN
UAE,Aeródromo,GUALEGUAY/AEROCLUB,"33° 6' 8""S  59°22'26""W",-59.37388889,-33.10222222,13.0,Metros,Gualeguay,8.0,NO,PUBLICO,NOCONTROL,RACE,CIVIL,Nacional,NO,NO,ENTRE RÍOS
UCO,Aeródromo,CHACABUCO,"34°36'26""S  60°24'35""W",-60.40972222,-34.60722222,69.0,Metros,Chacabuco,7.0,NE,PUBLICO,NOCONTROL,RACE,CIVIL,Nacional,NO,NO,BUENOS AIRES
UEL,Aeródromo,VILLAGUAY/EL JAGÜEL,"31°48'14""S  59° 2' 5""W",-59.03479,-31.80384,61.0,Metros,Villaguay,6.5,N,PRIVADO,NOCONTROL,RACE,,Nacional,NO,NO,ENTRE RÍOS
UEN,Aeródromo,QUEQUEN/MOROMAR,"38°25'32""S  58°22'17""W",-58.37148208,-38.42552552,15.0,Metros,Quequén,31.0,ENE,PRIVADO,NOCONTROL,RACE,CIVIL,Nacional,NO,NO,BUENOS AIRES
UIS,Aeródromo,SAN LUIS/BRIG. MAYOR D. CÉSAR RAUL OJEDA,"33°16'20""S  66°21'24""W",-66.35666667,-33.27222222,710.0,Metros,San Luis,3.8,NO,PUBLICO,CONTROL,RANO,,Nacional,SI,SI,SAN LUIS
UNE,Aeródromo,FUNES/ALAGRO FUMIGACIONES,"32°53'18""S  60°50'37""W",-60.8436,-32.88841,35.0,Metros,Funes,5.0,NO,PRIVADO,NOCONTROL,RACE,AEROAPP,Nacional,NO,NO,SANTA FÉ
UPE,Aeródromo,SANTA FÉ/GUADALUPE,"31°35'34""S  60°40'37""W",-60.67690162,-31.59274469,18.0,Metros,Santa Fé,8.0,NNE,PRIVADO,NOCONTROL,RACE,,Nacional,NO,NO,SANTA FÉ
URD,Aeródromo,URDINARRAIN,"32°41'45""S  58°53'56""W",-58.8989,-32.69589,66.0,Metros,Urdinarrain,0.0,SE,PUBLICO,NOCONTROL,RACE,,Nacional,NO,NO,ENTRE RÍOS
URL,Aeródromo,URIBURU/ESTANCIA LOS ROBLES,"36°33'11""S  63°45'59""W",-63.76652,-36.55297,137.0,Metros,Uriburu,10.0,ESE,PRIVADO,NOCONTROL,RACE,CIVIL,Nacional,NO,NO,LA PAMPA
URO,Aeródromo,PEDRO LURO,"39°27'21""S  62°40'30""W",-62.675,-39.45583333,27.0,Metros,Pedro Luro,4.0,N,PUBLICO,NOCONTROL,RACE,,Nacional,NO,NO,BUENOS AIRES
USU,Aeródromo,USHUAIA/MALVINAS ARGENTINAS,"54°50'36""S  68°17'44""W",-68.29555556,-54.84333333,31.0,Metros,Ushuaia,0.0,Lindando,PUBLICO,CONTROL,RASU,,Internacional,SI,SI,TIERRA DEL FUEGO ANTÁRTIDA E ISLAS DEL ATLÁNTICO SUR
VAL,Aeródromo,VALCHETA,"40°41'57""S  66° 9'26""W",-66.1573,-40.69909,192.0,Metros,Valcheta,1.5,SE,PUBLICO,NOCONTROL,RASU,,Nacional,NO,NO,RÍO NEGRO
VAN,Aeródromo,VILLA ANGELA,"27°35'42""S  60°40'55""W",-60.68196,-27.59505,75.0,Metros,Villa Angela,3.5,SE,PUBLICO,AERADIO,RANE,,Nacional,NO,NO,CHACO
VAY,Aeródromo,VILLA AMANCAY/HALLPA HUAYRA,"32°12'29""S  64°32'25""W",-64.54027778,-32.20805556,557.0,Metros,Villa Amancay,7.0,SE,PRIVADO,NOCONTROL,RANO,,Nacional,NO,NO,CÓRDOBA
VCA,Aeródromo,VICTORICA,"36°12'25""S  65°24'58""W",-65.41617,-36.20694,311.0,Metros,Victorica,1.2,NE,PRIVADO,NOCONTROL,RACE,,Nacional,NO,NO,LA PAMPA
VCC,Aeródromo,VILLA CAÑAS/S. A. MIGUEL A. CARDONE,"33°57'40""S  61°38' 0""W",-61.63335,-33.96101,103.0,Metros,Villa Cañas,4.5,NO,PUBLICO,NOCONTROL,RACE,CIVIL,Nacional,NO,NO,SANTA FÉ
VDA,Aeródromo,VEDIA,"34°29'10""S  61°29'23""W",-61.48972222,-34.48611111,89.0,Metros,Vedia,5.0,NE,PUBLICO,NOCONTROL,RACE,,Nacional,NO,NO,BUENOS AIRES
VDL,Aeródromo,CORONEL VIDAL,"37°28' 4""S  57°46' 2""W",-57.76722222,-37.46777778,26.0,Metros,Coronel Vidal,3.7,OSO,PUBLICO,NOCONTROL,RACE,CIVIL,Nacional,NO,NO,BUENOS AIRES
VDO,Aeródromo,EL CORCOVADO,"43°31'58""S  71°29' 9""W",-71.48582,-43.53287,600.0,Metros,,0.0,Lindando,PRIVADO,NOCONTROL,RASU,CIVIL,Nacional,NO,NO,CHUBUT
VDR,Aeródromo,VILLA DEL ROSARIO,"31°34'50""S  63°32'20""W",-63.53888889,-31.58055556,253.0,Metros,Villa del Rosario,1.5,S,PUBLICO,NOCONTROL,RANO,,Nacional,NO,NO,CÓRDOBA
VEC,Aeródromo,CORCOVADO/EA. CARIDAD,"43°43'17""S  71°14'44""W",-71.24555556,-43.72138889,740.0,Metros,Corcovado,27.0,SE,PRIVADO,NOCONTROL,RASU,CIVIL,Nacional,NO,NO,CHUBUT
VER,Aeródromo,VERA,"29°28' 6""S  60°13'35""W",-60.2264,-29.46835,58.0,Metros,Vera,1.0,SO,PUBLICO,NOCONTROL,RANE,,Nacional,NO,NO,SANTA FÉ
VEZ,Aeródromo,GALVEZ,"32° 2' 7""S  61°10'40""W",-61.17777778,-32.03527778,41.0,Metros,Galvez,4.0,E,PUBLICO,NOCONTROL,RACE,CIVIL,Nacional,NO,NO,SANTA FÉ
VGB,Aeródromo,VILLA GENERAL BELGRANO,"31°57'52""S  64°33'52""W",-64.56444444,-31.96444444,840.0,Metros,Villa General Belgrano,0.0,NO,PUBLICO,NOCONTROL,RANO,,Nacional,NO,NO,CÓRDOBA
VIC,Aeródromo,VICTORIA,"32°35' 4""S  60°11'22""W",-60.1894,-32.5845,12.0,Metros,Victoria,4.8,NO,PUBLICO,NOCONTROL,RACE,,Nacional,NO,NO,ENTRE RÍOS
VIE,Aeródromo,VIEDMA/GOBERNADOR CASTELLO,"40°52'13""S  62°59'48""W",-62.99666667,-40.87027778,6.0,Metros,Viedma,6.0,S,PUBLICO,CONTROL,RASU,,Nacional,SI,SI,RÍO NEGRO
VIG,Aeródromo,VILLAGUAY,"31°51' 2""S  59° 4'23""W",-59.07305556,-31.85055556,40.0,Metros,Villaguay,5.0,NO,PRIVADO,NOCONTROL,RACE,,Nacional,NO,NO,ENTRE RÍOS
VIT,Aeródromo,SANTA VICTORIA,"22°17' 8""S  62°42'49""W",-62.71372,-22.28551,280.0,Metros,Santa Victoria,7.0,S,PRIVADO,NOCONTROL,RANO,,Nacional,NO,NO,SALTA
VLL,Aeródromo,VILLAGUAY/EL MALAGUEÑO,"31°41'32""S  59°24'38""W",-59.41059,-31.69211,55.0,Metros,Villaguay,40.0,NO,PRIVADO,NOCONTROL,RACE,,Nacional,NO,NO,ENTRE RÍOS
VMA,Aeródromo,VICUÑA MACKENNA/DON ÁNGEL,"33°56'18""S  64°24'28""W",-64.40775,-33.93823,228.0,Metros,Vicuña Mackenna,2.0,SO,PRIVADO,NOCONTROL,RACE,AEROAPP,Nacional,NO,NO,CÓRDOBA
VMB,Aeródromo,VICUÑA MACKENNA/BENEFICIOS S.R.L.,"33°56'15""S  64°24'54""W",-64.41509,-33.93757,241.0,Metros,Vicuña Mackenna,2.0,SO,PRIVADO,NOCONTROL,RANO,AEROAPP,Nacional,NO,NO,CÓRDOBA
VMC,Aeródromo,VICUÑA MACKENNA/COMEQUECHEN,"33°56' 2""S  64°24'57""W",-64.41595,-33.934,243.0,Metros,Vicuña Mackenna,3.0,SO,PRIVADO,NOCONTROL,RACE,AEROAPP,Nacional,NO,NO,CÓRDOBA
VMK,Aeródromo,VICUÑA MACKENNA/MARTÍN FIERRO,"33°56'35""S  64°22'16""W",-64.37117,-33.94302,230.0,Metros,Vicuña Mackenna,2.0,SSE,PRIVADO,NOCONTROL,RACE,,Nacional,NO,NO,CÓRDOBA
VMR,Aeródromo,VILLA MARIA/AEROPUERTO REGIONAL,"32°19'12""S  63°13'36""W",-63.22654,-32.32006,202.0,Metros,Villa María,9.0,N,PUBLICO,NOCONTROL,RANO,CIVIL,Nacional,NO,NO,CÓRDOBA
VMT,Aeródromo,VILLA MERCEDES/LAS TOTORITAS,"33°50'41""S  65°19'29""W",-65.32472222,-33.84472222,448.0,Metros,Villa Mercedes,20.0,SE,PRIVADO,NOCONTROL,RANO,AEROAPP,Nacional,NO,NO,SAN LUIS
VNA,Aeródromo,VERÓNICA,"35°23'58""S  57°22' 2""W",-57.36722222,-35.39944444,17.0,Metros,Verónica,2.5,SO,PUBLICO,NOCONTROL,RACE,,Nacional,NO,NO,BUENOS AIRES
VNO,Aeródromo,VENADO TUERTO,"33°40'47""S  61°57'19""W",-61.95515,-33.67977,112.0,Metros,Venado Tuerto,6.0,N,PUBLICO,NOCONTROL,RACE,,Nacional,NO,NO,SANTA FÉ
VNR,Aeródromo,VILLA NUEVA/RAIG SA,"32°26'17""S  63°17'22""W",-63.28930556,-32.43816667,206.0,Metros,Villa María,5.0,SO,PRIVADO,NOCONTROL,RANO,AEROAPP,Nacional,NO,NO,CÓRDOBA
VNS,Aeródromo,VILLA NUEVA/SUAREZ AVIACIÓN,"32°25'37""S  63°18' 8""W",-63.30222222,-32.42694444,207.0,Metros,Villa Nueva,6.0,OSO,PRIVADO,NOCONTROL,RANO,AEROAPP,Nacional,NO,NO,CÓRDOBA
VPO,Aeródromo,VILLA OCAMPO,"28°29'46""S  59°19'34""W",-59.32612,-28.49598,49.0,Metros,Villa Ocampo,2.5,O,PUBLICO,NOCONTROL,RANE,,Nacional,NO,NO,SANTA FÉ
VRG,Aeródromo,VILLA REGINA,"39° 4'29""S  67° 4'41""W",-67.07805556,-39.07472222,285.0,Metros,Villa Regina,1.4,N,PUBLICO,NOCONTROL,RACE,,Nacional,NO,NO,RÍO NEGRO
VRU,Aeródromo,VILLA RUMIPAL/PRIMER TENIENTE MARIO NIVOLI,"32°11' 3""S  64°29'20""W",-64.48888889,-32.18416667,666.0,Metros,Villa Rumipal,0.0,ENE,PUBLICO,NOCONTROL,RANO,,Nacional,NO,NO,CÓRDOBA
VTE,Aeródromo,SAN VICENTE,"26°57'11""S  54°29'16""W",-54.48789,-26.95314,550.0,Metros,San Vicente,2.0,N,PUBLICO,NOCONTROL,RANE,,Nacional,NO,NO,MISIONES
VTO,Aeródromo,VENADO TUERTO/LA SIESTA,"33°41'29""S  62° 3'49""W",-62.06369,-33.69132,112.0,Metros,Venado Tuerto,12.0,NO,PRIVADO,NOCONTROL,RACE,,Nacional,NO,NO,SANTA FÉ
VTS,Aeródromo,VENADO TUERTO/SAVESA,"33°46'43""S  61°58'34""W",-61.97609,-33.77872,110.0,Metros,Venado Tuerto,3.0,S,PRIVADO,NOCONTROL,RACE,,Nacional,NO,NO,SANTA FÉ
YOP,Aeródromo,TRES ARROYOS/PETRAZZINI,"38°20'52""S  60°16'34""W",-60.27611111,-38.34777778,107.0,Metros,Tres Arroyos,3.0,N,PRIVADO,NOCONTROL,RACE,,Nacional,NO,NO,BUENOS AIRES
YOS,Aeródromo,TRES ARROYOS,"38°23' 8""S  60°19'39""W",-60.3275,-38.38555556,122.0,Metros,Tres Arroyos,5.0,SO,PUBLICO,NOCONTROL,RACE,,Nacional,NO,NO,BUENOS AIRES
YPY,Aeródromo,YAPEYÚ,"29°21'32""S  56°47'45""W",-56.79573,-29.35877,53.0,Metros,Yapeyú,12.0,N,PRIVADO,NOCONTROL,RANE,,Nacional,NO,NO,CORRIENTES
ZAP,Aeródromo,ZAPALA,"38°58'33""S  70° 6'48""W",-70.11346389,-38.97588611,1048.0,Metros,Zapala,7.5,SO,PUBLICO,NOCONTROL,RACE,,Nacional,NO,NO,NEUQUÉN
ZLM,Aeródromo,BELL VILLE/LA ZULEMA,"32°29'23""S  62°40'17""W",-62.67138889,-32.48972222,129.0,Metros,Bell Ville,13.0,N,PRIVADO,NOCONTROL,RANO,AEROAPP,Nacional,NO,NO,CÓRDOBA
ZUL,Aeródromo,AZUL,"36°50'12""S  59°52'51""W",-59.8808,-36.83675,146.0,Metros,Azul,3.0,SO,PUBLICO,NOCONTROL,RACE,CIVIL,Nacional,NO,NO,BUENOS AIRES
